{"type":"FeatureCollection","features":[
{"type":"Feature","geometry":{"type":"Point","coordinates":[34.01491360500895,0.08939897056460075]},"properties":{"TOWN":"Lugare","wanted":0,"POINT_X":34.014913605,"POINT_Y":0.0893989705646,"NOFBI_Stru":""}},
{"type":"Feature","geometry":{"type":"Point","coordinates":[33.997972706919136,0.16231406576433052]},"properties":{"TOWN":"Port Victoria","wanted":0,"POINT_X":33.9979727069,"POINT_Y":0.162314065764,"NOFBI_Stru":""}},
{"type":"Feature","geometry":{"type":"Point","coordinates":[34.028516602099884,0.2366844612484634]},"properties":{"TOWN":"Sio Port","wanted":0,"POINT_X":34.0285166021,"POINT_Y":0.236684461248,"NOFBI_Stru":""}},
{"type":"Feature","geometry":{"type":"Point","coordinates":[34.16272140198023,-0.8327841399658891]},"properties":{"TOWN":"Karungu","wanted":0,"POINT_X":34.162721402,"POINT_Y":-0.832784139966,"NOFBI_Stru":""}},
{"type":"Feature","geometry":{"type":"Point","coordinates":[34.14042845172246,-0.9393773218600886]},"properties":{"TOWN":"Got Kachola","wanted":0,"POINT_X":34.1404284517,"POINT_Y":-0.93937732186,"NOFBI_Stru":""}},
{"type":"Feature","geometry":{"type":"Point","coordinates":[34.15667119936779,-0.6830894204302166]},"properties":{"TOWN":"Magunga","wanted":0,"POINT_X":34.1566711994,"POINT_Y":-0.68308942043,"NOFBI_Stru":""}},
{"type":"Feature","geometry":{"type":"Point","coordinates":[34.171339180591175,-0.5294913295646873]},"properties":{"TOWN":"Sindo","wanted":0,"POINT_X":34.1713391806,"POINT_Y":-0.529491329565,"NOFBI_Stru":""}},
{"type":"Feature","geometry":{"type":"Point","coordinates":[34.091087338306615,0.12106073897013923]},"properties":{"TOWN":"Busonga","wanted":0,"POINT_X":34.0910873383,"POINT_Y":0.12106073897,"NOFBI_Stru":""}},
{"type":"Feature","geometry":{"type":"Point","coordinates":[34.10488198523421,-1.0076391161263059]},"properties":{"TOWN":"Muhuru","wanted":0,"POINT_X":34.1048819852,"POINT_Y":-1.00763911613,"NOFBI_Stru":""}},
{"type":"Feature","geometry":{"type":"Point","coordinates":[34.29753562161708,-0.9621150029932333]},"properties":{"TOWN":"Macalder Mines","wanted":0,"POINT_X":34.2975356216,"POINT_Y":-0.962115002993,"NOFBI_Stru":""}},
{"type":"Feature","geometry":{"type":"Point","coordinates":[34.23875615629572,-0.7854000076636357]},"properties":{"TOWN":"Aora","wanted":0,"POINT_X":34.2387561563,"POINT_Y":-0.785400007664,"NOFBI_Stru":""}},
{"type":"Feature","geometry":{"type":"Point","coordinates":[34.21257989205435,-0.9412317658740386]},"properties":{"TOWN":"Wath Ong'er","wanted":0,"POINT_X":34.2125798921,"POINT_Y":-0.941231765874,"NOFBI_Stru":""}},
{"type":"Feature","geometry":{"type":"Point","coordinates":[34.20551633480405,-0.40247910860655894]},"properties":{"TOWN":"Mbita","wanted":0,"POINT_X":34.2055163348,"POINT_Y":-0.402479108607,"NOFBI_Stru":""}},
{"type":"Feature","geometry":{"type":"Point","coordinates":[34.29129053904236,-0.46413241297496693]},"properties":{"TOWN":"Luanda","wanted":0,"POINT_X":34.291290539,"POINT_Y":-0.464132412975,"NOFBI_Stru":""}},
{"type":"Feature","geometry":{"type":"Point","coordinates":[34.300235214876494,-0.3769624827990495]},"properties":{"TOWN":"Luanda Kotieno","wanted":0,"POINT_X":34.3002352149,"POINT_Y":-0.376962482799,"NOFBI_Stru":""}},
{"type":"Feature","geometry":{"type":"Point","coordinates":[34.328372495427004,-0.3217488513350035]},"properties":{"TOWN":"Ndingwa","wanted":0,"POINT_X":34.3283724954,"POINT_Y":-0.321748851335,"NOFBI_Stru":""}},
{"type":"Feature","geometry":{"type":"Point","coordinates":[34.279516192756496,-0.23808332081456357]},"properties":{"TOWN":"Manywanda","wanted":0,"POINT_X":34.2795161928,"POINT_Y":-0.238083320815,"NOFBI_Stru":""}},
{"type":"Feature","geometry":{"type":"Point","coordinates":[34.326474177097175,-0.21814285142168002]},"properties":{"TOWN":"Owimbi","wanted":0,"POINT_X":34.3264741771,"POINT_Y":-0.218142851422,"NOFBI_Stru":""}},
{"type":"Feature","geometry":{"type":"Point","coordinates":[34.274145795753434,-0.08540144669444079]},"properties":{"TOWN":"Bondo","wanted":0,"POINT_X":34.2741457958,"POINT_Y":-0.0854014466944,"NOFBI_Stru":""}},
{"type":"Feature","geometry":{"type":"Point","coordinates":[34.29487784409456,0.07074841946769121]},"properties":{"TOWN":"Siaya","wanted":0,"POINT_X":34.2948778441,"POINT_Y":0.0707484194677,"NOFBI_Stru":"County Headquaters"}},
{"type":"Feature","geometry":{"type":"Point","coordinates":[34.33015019545706,0.1669359754229965]},"properties":{"TOWN":"Ambira","wanted":0,"POINT_X":34.3301501955,"POINT_Y":0.166935975423,"NOFBI_Stru":""}},
{"type":"Feature","geometry":{"type":"Point","coordinates":[34.31224027855025,-1.0168384029361084]},"properties":{"TOWN":"Masara","wanted":0,"POINT_X":34.3122402786,"POINT_Y":-1.01683840294,"NOFBI_Stru":""}},
{"type":"Feature","geometry":{"type":"Point","coordinates":[34.21690094844074,-1.0068419626255292]},"properties":{"TOWN":"Kadem","wanted":0,"POINT_X":34.2169009484,"POINT_Y":-1.00684196263,"NOFBI_Stru":""}},
{"type":"Feature","geometry":{"type":"Point","coordinates":[34.19302533136716,0.20850968496555009]},"properties":{"TOWN":"Ukwala","wanted":0,"POINT_X":34.1930253314,"POINT_Y":0.208509684966,"NOFBI_Stru":""}},
{"type":"Feature","geometry":{"type":"Point","coordinates":[34.098233931672915,0.2884509665569985]},"properties":{"TOWN":"Nangina","wanted":0,"POINT_X":34.0982339317,"POINT_Y":0.288450966557,"NOFBI_Stru":""}},
{"type":"Feature","geometry":{"type":"Point","coordinates":[34.168009585995264,0.37237168595725556]},"properties":{"TOWN":"Matayos","wanted":0,"POINT_X":34.168009586,"POINT_Y":0.372371685957,"NOFBI_Stru":""}},
{"type":"Feature","geometry":{"type":"Point","coordinates":[34.104836432210696,0.4683901337888445]},"properties":{"TOWN":"Busia","wanted":0,"POINT_X":34.1048364322,"POINT_Y":0.468390133789,"NOFBI_Stru":"County Headquaters"}},
{"type":"Feature","geometry":{"type":"Point","coordinates":[34.14720063578016,0.4543857830360236]},"properties":{"TOWN":"Mbwekas","wanted":0,"POINT_X":34.1472006358,"POINT_Y":0.454385783036,"NOFBI_Stru":""}},
{"type":"Feature","geometry":{"type":"Point","coordinates":[34.29392502030966,0.19390573591646043]},"properties":{"TOWN":"Ambila","wanted":0,"POINT_X":34.2939250203,"POINT_Y":0.193905735916,"NOFBI_Stru":""}},
{"type":"Feature","geometry":{"type":"Point","coordinates":[34.20826482961252,0.31762724898729594]},"properties":{"TOWN":"Bumala","wanted":0,"POINT_X":34.2082648296,"POINT_Y":0.317627248987,"NOFBI_Stru":""}},
{"type":"Feature","geometry":{"type":"Point","coordinates":[34.337880657001186,0.3534847306243412]},"properties":{"TOWN":"Butula","wanted":0,"POINT_X":34.337880657,"POINT_Y":0.353484730624,"NOFBI_Stru":""}},
{"type":"Feature","geometry":{"type":"Point","coordinates":[34.232137029909445,0.2643971249462755]},"properties":{"TOWN":"Sega","wanted":0,"POINT_X":34.2321370299,"POINT_Y":0.264397124946,"NOFBI_Stru":""}},
{"type":"Feature","geometry":{"type":"Point","coordinates":[34.22275319454507,0.49636862540436166]},"properties":{"TOWN":"Khawirale","wanted":0,"POINT_X":34.2227531945,"POINT_Y":0.496368625404,"NOFBI_Stru":""}},
{"type":"Feature","geometry":{"type":"Point","coordinates":[34.25085642111192,0.4600617729568159]},"properties":{"TOWN":"Nambale","wanted":0,"POINT_X":34.2508564211,"POINT_Y":0.460061772957,"NOFBI_Stru":""}},
{"type":"Feature","geometry":{"type":"Point","coordinates":[34.316704743745134,0.48507460423937093]},"properties":{"TOWN":"Mungatsi","wanted":0,"POINT_X":34.3167047437,"POINT_Y":0.485074604239,"NOFBI_Stru":""}},
{"type":"Feature","geometry":{"type":"Point","coordinates":[34.2384098185708,0.6178586815096]},"properties":{"TOWN":"Machakusi","wanted":0,"POINT_X":34.2384098186,"POINT_Y":0.61785868151,"NOFBI_Stru":""}},
{"type":"Feature","geometry":{"type":"Point","coordinates":[34.276319482061076,0.5832559833498002]},"properties":{"TOWN":"Amukura","wanted":0,"POINT_X":34.2763194821,"POINT_Y":0.58325598335,"NOFBI_Stru":""}},
{"type":"Feature","geometry":{"type":"Point","coordinates":[34.27891167750244,0.6486292963222948]},"properties":{"TOWN":"Malaba","wanted":0,"POINT_X":34.2789116775,"POINT_Y":0.648629296322,"NOFBI_Stru":"TLK (OFC Terminals)"}},
{"type":"Feature","geometry":{"type":"Point","coordinates":[34.47811353417772,-0.8984536089339885]},"properties":{"TOWN":"Rapogi","wanted":0,"POINT_X":34.4781135342,"POINT_Y":-0.898453608934,"NOFBI_Stru":""}},
{"type":"Feature","geometry":{"type":"Point","coordinates":[34.41021840272626,-0.8166273319905212]},"properties":{"TOWN":"Kagaga","wanted":0,"POINT_X":34.4102184027,"POINT_Y":-0.816627331991,"NOFBI_Stru":""}},
{"type":"Feature","geometry":{"type":"Point","coordinates":[34.373756960647405,-0.7213253855434115]},"properties":{"TOWN":"Ndhiwa","wanted":0,"POINT_X":34.3737569606,"POINT_Y":-0.721325385543,"NOFBI_Stru":""}},
{"type":"Feature","geometry":{"type":"Point","coordinates":[34.403885596265894,-0.6986662701999199]},"properties":{"TOWN":"Mirogi","wanted":0,"POINT_X":34.4038855963,"POINT_Y":-0.6986662702,"NOFBI_Stru":""}},
{"type":"Feature","geometry":{"type":"Point","coordinates":[34.37545201469814,-0.5626602981747182]},"properties":{"TOWN":"Lambwe","wanted":0,"POINT_X":34.3754520147,"POINT_Y":-0.562660298175,"NOFBI_Stru":""}},
{"type":"Feature","geometry":{"type":"Point","coordinates":[34.398448168848866,-0.5786697547437042]},"properties":{"TOWN":"Ogongo","wanted":0,"POINT_X":34.3984481688,"POINT_Y":-0.578669754744,"NOFBI_Stru":""}},
{"type":"Feature","geometry":{"type":"Point","coordinates":[34.47942081883141,-0.5691943398296847]},"properties":{"TOWN":"Kabuadi","wanted":0,"POINT_X":34.4794208188,"POINT_Y":-0.56919433983,"NOFBI_Stru":""}},
{"type":"Feature","geometry":{"type":"Point","coordinates":[34.46228764109497,-0.5134290250003049]},"properties":{"TOWN":"Homa Bay","wanted":0,"POINT_X":34.4622876411,"POINT_Y":-0.513429025,"NOFBI_Stru":"County Headquaters"}},
{"type":"Feature","geometry":{"type":"Point","coordinates":[34.38087932110421,-0.05917903804883266]},"properties":{"TOWN":"Ndori","wanted":0,"POINT_X":34.3808793211,"POINT_Y":-0.0591790380488,"NOFBI_Stru":""}},
{"type":"Feature","geometry":{"type":"Point","coordinates":[34.39181651482915,-0.16958004492160583]},"properties":{"TOWN":"Asembo","wanted":0,"POINT_X":34.3918165148,"POINT_Y":-0.169580044922,"NOFBI_Stru":""}},
{"type":"Feature","geometry":{"type":"Point","coordinates":[34.4374392185404,-0.04868765783007517]},"properties":{"TOWN":"Akala","wanted":0,"POINT_X":34.4374392185,"POINT_Y":-0.0486876578301,"NOFBI_Stru":""}},
{"type":"Feature","geometry":{"type":"Point","coordinates":[34.440053694754276,0.06806525233434331]},"properties":{"TOWN":"Kagilo","wanted":0,"POINT_X":34.4400536948,"POINT_Y":0.0680652523343,"NOFBI_Stru":""}},
{"type":"Feature","geometry":{"type":"Point","coordinates":[34.373007664984804,0.05882364250651678]},"properties":{"TOWN":"Ng'iya","wanted":0,"POINT_X":34.373007665,"POINT_Y":0.0588236425065,"NOFBI_Stru":""}},
{"type":"Feature","geometry":{"type":"Point","coordinates":[34.459260031960056,0.12433900706045284]},"properties":{"TOWN":"Kodiaga","wanted":0,"POINT_X":34.459260032,"POINT_Y":0.12433900706,"NOFBI_Stru":""}},
{"type":"Feature","geometry":{"type":"Point","coordinates":[34.38360466777371,0.1700724045712327]},"properties":{"TOWN":"Sidindi","wanted":0,"POINT_X":34.3836046678,"POINT_Y":0.170072404571,"NOFBI_Stru":""}},
{"type":"Feature","geometry":{"type":"Point","coordinates":[34.46297586390484,-1.0591998022204268]},"properties":{"TOWN":"Migori","wanted":0,"POINT_X":34.4629758639,"POINT_Y":-1.05919980222,"NOFBI_Stru":"County Headquaters"}},
{"type":"Feature","geometry":{"type":"Point","coordinates":[34.468200723659784,-1.2315542962570676]},"properties":{"TOWN":"Icebania","wanted":0,"POINT_X":34.4682007237,"POINT_Y":-1.23155429626,"NOFBI_Stru":""}},
{"type":"Feature","geometry":{"type":"Point","coordinates":[34.53688037608576,-0.8944466710454856]},"properties":{"TOWN":"Awendo","wanted":0,"POINT_X":34.5368803761,"POINT_Y":-0.894446671045,"NOFBI_Stru":""}},
{"type":"Feature","geometry":{"type":"Point","coordinates":[34.566761928679036,-0.8451440502633106]},"properties":{"TOWN":"Ranen","wanted":0,"POINT_X":34.5667619287,"POINT_Y":-0.845144050263,"NOFBI_Stru":""}},
{"type":"Feature","geometry":{"type":"Point","coordinates":[34.64107679549202,-0.8381197232827884]},"properties":{"TOWN":"Nyangweta","wanted":0,"POINT_X":34.6410767955,"POINT_Y":-0.838119723283,"NOFBI_Stru":""}},
{"type":"Feature","geometry":{"type":"Point","coordinates":[34.60459475654917,-0.7435007911430118]},"properties":{"TOWN":"Rongo","wanted":0,"POINT_X":34.6045947565,"POINT_Y":-0.743500791143,"NOFBI_Stru":""}},
{"type":"Feature","geometry":{"type":"Point","coordinates":[34.62802476948109,-0.721853922154303]},"properties":{"TOWN":"Kamagambo","wanted":0,"POINT_X":34.6280247695,"POINT_Y":-0.721853922154,"NOFBI_Stru":""}},
{"type":"Feature","geometry":{"type":"Point","coordinates":[34.50426713736129,-0.6102137932908719]},"properties":{"TOWN":"Rodi Kopany","wanted":0,"POINT_X":34.5042671374,"POINT_Y":-0.610213793291,"NOFBI_Stru":""}},
{"type":"Feature","geometry":{"type":"Point","coordinates":[34.53723916453593,-0.5845231738004477]},"properties":{"TOWN":"Imbo","wanted":0,"POINT_X":34.5372391645,"POINT_Y":-0.5845231738,"NOFBI_Stru":""}},
{"type":"Feature","geometry":{"type":"Point","coordinates":[34.58517717983407,-0.5873738368253257]},"properties":{"TOWN":"Rangwe","wanted":0,"POINT_X":34.5851771798,"POINT_Y":-0.587373836825,"NOFBI_Stru":""}},
{"type":"Feature","geometry":{"type":"Point","coordinates":[34.531673125207504,-0.48777503493993535]},"properties":{"TOWN":"Olare","wanted":0,"POINT_X":34.5316731252,"POINT_Y":-0.48777503494,"NOFBI_Stru":""}},
{"type":"Feature","geometry":{"type":"Point","coordinates":[34.55014469724517,-0.41391317509724646]},"properties":{"TOWN":"Kandiege","wanted":0,"POINT_X":34.5501446972,"POINT_Y":-0.413913175097,"NOFBI_Stru":""}},
{"type":"Feature","geometry":{"type":"Point","coordinates":[34.56348085685429,-0.34397832381660476]},"properties":{"TOWN":"Wagwe","wanted":0,"POINT_X":34.5634808569,"POINT_Y":-0.343978323817,"NOFBI_Stru":""}},
{"type":"Feature","geometry":{"type":"Point","coordinates":[34.630376566837505,-0.38040312154951395]},"properties":{"TOWN":"Oriang","wanted":0,"POINT_X":34.6303765668,"POINT_Y":-0.38040312155,"NOFBI_Stru":""}},
{"type":"Feature","geometry":{"type":"Point","coordinates":[34.513590829347095,-0.08232592894317088]},"properties":{"TOWN":"Kombewa","wanted":0,"POINT_X":34.5135908293,"POINT_Y":-0.0823259289432,"NOFBI_Stru":""}},
{"type":"Feature","geometry":{"type":"Point","coordinates":[34.601905545743946,0.0009267145454819482]},"properties":{"TOWN":"Maseno","wanted":0,"POINT_X":34.6019055457,"POINT_Y":0.000926714545482,"NOFBI_Stru":""}},
{"type":"Feature","geometry":{"type":"Point","coordinates":[34.58345314466739,0.045638918456559194]},"properties":{"TOWN":"Luanda","wanted":0,"POINT_X":34.5834531447,"POINT_Y":0.0456389184566,"NOFBI_Stru":""}},
{"type":"Feature","geometry":{"type":"Point","coordinates":[34.5348741636146,0.10715257033844891]},"properties":{"TOWN":"Yala","wanted":0,"POINT_X":34.5348741636,"POINT_Y":0.107152570338,"NOFBI_Stru":""}},
{"type":"Feature","geometry":{"type":"Point","coordinates":[34.57075797316258,-1.031897497558339]},"properties":{"TOWN":"Yani","wanted":0,"POINT_X":34.5707579732,"POINT_Y":-1.03189749756,"NOFBI_Stru":""}},
{"type":"Feature","geometry":{"type":"Point","coordinates":[34.61475159955655,-1.1632019337458215]},"properties":{"TOWN":"Kehancha","wanted":0,"POINT_X":34.6147515996,"POINT_Y":-1.16320193375,"NOFBI_Stru":""}},
{"type":"Feature","geometry":{"type":"Point","coordinates":[34.58618652260512,-1.2299736893923854]},"properties":{"TOWN":"Taranganya","wanted":0,"POINT_X":34.5861865226,"POINT_Y":-1.22997368939,"NOFBI_Stru":""}},
{"type":"Feature","geometry":{"type":"Point","coordinates":[34.408074133875516,0.38016944498231897]},"properties":{"TOWN":"Buhuyi","wanted":0,"POINT_X":34.4080741339,"POINT_Y":0.380169444982,"NOFBI_Stru":""}},
{"type":"Feature","geometry":{"type":"Point","coordinates":[34.3924156776356,0.5782729696554663]},"properties":{"TOWN":"Myanga","wanted":0,"POINT_X":34.3924156776,"POINT_Y":0.578272969655,"NOFBI_Stru":""}},
{"type":"Feature","geometry":{"type":"Point","coordinates":[34.43110604437957,0.6846515289150532]},"properties":{"TOWN":"Mayanja","wanted":0,"POINT_X":34.4311060444,"POINT_Y":0.684651528915,"NOFBI_Stru":""}},
{"type":"Feature","geometry":{"type":"Point","coordinates":[34.361658816468974,0.7048574535471684]},"properties":{"TOWN":"Omudeke","wanted":0,"POINT_X":34.3616588165,"POINT_Y":0.704857453547,"NOFBI_Stru":""}},
{"type":"Feature","geometry":{"type":"Point","coordinates":[34.390907799184106,0.7594521475987026]},"properties":{"TOWN":"Kakameri","wanted":0,"POINT_X":34.3909077992,"POINT_Y":0.759452147599,"NOFBI_Stru":""}},
{"type":"Feature","geometry":{"type":"Point","coordinates":[34.43806328598195,0.8039266752918971]},"properties":{"TOWN":"Wamono","wanted":0,"POINT_X":34.438063286,"POINT_Y":0.803926675292,"NOFBI_Stru":""}},
{"type":"Feature","geometry":{"type":"Point","coordinates":[34.55916563215044,0.8219575746598929]},"properties":{"TOWN":"Chelebei","wanted":0,"POINT_X":34.5591656322,"POINT_Y":0.82195757466,"NOFBI_Stru":""}},
{"type":"Feature","geometry":{"type":"Point","coordinates":[34.51609958730765,0.7803756884804085]},"properties":{"TOWN":"Sirisia","wanted":0,"POINT_X":34.5160995873,"POINT_Y":0.78037568848,"NOFBI_Stru":""}},
{"type":"Feature","geometry":{"type":"Point","coordinates":[34.57415411363726,0.7466066020636494]},"properties":{"TOWN":"Chwele","wanted":0,"POINT_X":34.5741541136,"POINT_Y":0.746606602064,"NOFBI_Stru":""}},
{"type":"Feature","geometry":{"type":"Point","coordinates":[34.63996636676148,0.7607188552325282]},"properties":{"TOWN":"Kuywa","wanted":0,"POINT_X":34.6399663668,"POINT_Y":0.760718855233,"NOFBI_Stru":""}},
{"type":"Feature","geometry":{"type":"Point","coordinates":[34.55356630341748,0.7059907072132593]},"properties":{"TOWN":"Sikusi","wanted":0,"POINT_X":34.5535663034,"POINT_Y":0.705990707213,"NOFBI_Stru":""}},
{"type":"Feature","geometry":{"type":"Point","coordinates":[34.51428835558004,0.6606988936910837]},"properties":{"TOWN":"Mayanja","wanted":0,"POINT_X":34.5142883556,"POINT_Y":0.660698893691,"NOFBI_Stru":""}},
{"type":"Feature","geometry":{"type":"Point","coordinates":[34.523561480292436,0.6323489205460436]},"properties":{"TOWN":"Kibabii","wanted":0,"POINT_X":34.5235614803,"POINT_Y":0.632348920546,"NOFBI_Stru":""}},
{"type":"Feature","geometry":{"type":"Point","coordinates":[34.55340260549221,0.5705232930353423]},"properties":{"TOWN":"Bungoma","wanted":0,"POINT_X":34.5534026055,"POINT_Y":0.570523293035,"NOFBI_Stru":""}},
{"type":"Feature","geometry":{"type":"Point","coordinates":[34.621112473408736,0.6961743898916882]},"properties":{"TOWN":"Khachonge","wanted":0,"POINT_X":34.6211124734,"POINT_Y":0.696174389892,"NOFBI_Stru":""}},
{"type":"Feature","geometry":{"type":"Point","coordinates":[34.61901019143515,0.2337515892763128]},"properties":{"TOWN":"Bukura","wanted":0,"POINT_X":34.6190101914,"POINT_Y":0.233751589276,"NOFBI_Stru":""}},
{"type":"Feature","geometry":{"type":"Point","coordinates":[34.549915184910674,0.24801393997596063]},"properties":{"TOWN":"Lunza","wanted":0,"POINT_X":34.5499151849,"POINT_Y":0.248013939976,"NOFBI_Stru":""}},
{"type":"Feature","geometry":{"type":"Point","coordinates":[34.597035686173115,0.1841323794858424]},"properties":{"TOWN":"Khwishero","wanted":0,"POINT_X":34.5970356862,"POINT_Y":0.184132379486,"NOFBI_Stru":""}},
{"type":"Feature","geometry":{"type":"Point","coordinates":[34.57071547117515,0.3326655803264311]},"properties":{"TOWN":"Shianda","wanted":0,"POINT_X":34.5707154712,"POINT_Y":0.332665580326,"NOFBI_Stru":""}},
{"type":"Feature","geometry":{"type":"Point","coordinates":[34.51537917208219,0.4690726988493357]},"properties":{"TOWN":"Kabula","wanted":0,"POINT_X":34.5153791721,"POINT_Y":0.469072698849,"NOFBI_Stru":""}},
{"type":"Feature","geometry":{"type":"Point","coordinates":[34.782930760121296,-0.6649878886671723]},"properties":{"TOWN":"Kisii","wanted":0,"POINT_X":34.7829307601,"POINT_Y":-0.664987888667,"NOFBI_Stru":"County Headquaters"}},
{"type":"Feature","geometry":{"type":"Point","coordinates":[34.77925225341389,-0.7398698808837896]},"properties":{"TOWN":"Itumbe","wanted":0,"POINT_X":34.7792522534,"POINT_Y":-0.739869880884,"NOFBI_Stru":""}},
{"type":"Feature","geometry":{"type":"Point","coordinates":[34.72847406044122,-0.7848913213682915]},"properties":{"TOWN":"Ogembo","wanted":0,"POINT_X":34.7284740604,"POINT_Y":-0.784891321368,"NOFBI_Stru":""}},
{"type":"Feature","geometry":{"type":"Point","coordinates":[34.7307129147247,-0.4968628514459544]},"properties":{"TOWN":"Oyugis","wanted":0,"POINT_X":34.7307129147,"POINT_Y":-0.496862851446,"NOFBI_Stru":""}},
{"type":"Feature","geometry":{"type":"Point","coordinates":[34.6491780908059,-0.3469961078872167]},"properties":{"TOWN":"Kendu Bay","wanted":0,"POINT_X":34.6491780908,"POINT_Y":-0.346996107887,"NOFBI_Stru":""}},
{"type":"Feature","geometry":{"type":"Point","coordinates":[34.773534101730256,-0.38223499843360387]},"properties":{"TOWN":"Mawego","wanted":0,"POINT_X":34.7735341017,"POINT_Y":-0.382234998434,"NOFBI_Stru":""}},
{"type":"Feature","geometry":{"type":"Point","coordinates":[34.722663678854076,0.06280071431588406]},"properties":{"TOWN":"Majengo","wanted":0,"POINT_X":34.7226636789,"POINT_Y":0.0628007143159,"NOFBI_Stru":""}},
{"type":"Feature","geometry":{"type":"Point","coordinates":[34.744351986427745,-0.00506966273308716]},"properties":{"TOWN":"Kiboswa","wanted":0,"POINT_X":34.7443519864,"POINT_Y":-0.00506966273309,"NOFBI_Stru":""}},
{"type":"Feature","geometry":{"type":"Point","coordinates":[34.769876725626794,-0.08112819797398137]},"properties":{"TOWN":"Kisumu","wanted":0,"POINT_X":34.7698767256,"POINT_Y":-0.081128197974,"NOFBI_Stru":"County Headquaters"}},
{"type":"Feature","geometry":{"type":"Point","coordinates":[34.732474535723725,0.13089640802873095]},"properties":{"TOWN":"Chavakali","wanted":0,"POINT_X":34.7324745357,"POINT_Y":0.130896408029,"NOFBI_Stru":""}},
{"type":"Feature","geometry":{"type":"Point","coordinates":[34.78862952131697,0.13521710436231948]},"properties":{"TOWN":"Sabatia","wanted":0,"POINT_X":34.7886295213,"POINT_Y":0.135217104362,"NOFBI_Stru":""}},
{"type":"Feature","geometry":{"type":"Point","coordinates":[34.82881870304738,-0.8461435142961246]},"properties":{"TOWN":"Nyamache","wanted":0,"POINT_X":34.828818703,"POINT_Y":-0.846143514296,"NOFBI_Stru":""}},
{"type":"Feature","geometry":{"type":"Point","coordinates":[34.85330337984425,-0.9190171643615919]},"properties":{"TOWN":"Nyangusu","wanted":0,"POINT_X":34.8533033798,"POINT_Y":-0.919017164362,"NOFBI_Stru":""}},
{"type":"Feature","geometry":{"type":"Point","coordinates":[34.88986864620419,-0.8133870104515726]},"properties":{"TOWN":"Kiamokama","wanted":0,"POINT_X":34.8898686462,"POINT_Y":-0.813387010452,"NOFBI_Stru":""}},
{"type":"Feature","geometry":{"type":"Point","coordinates":[34.81757900508824,-0.6899263343980113]},"properties":{"TOWN":"Kegati","wanted":0,"POINT_X":34.8175790051,"POINT_Y":-0.689926334398,"NOFBI_Stru":""}},
{"type":"Feature","geometry":{"type":"Point","coordinates":[34.8801196491095,-0.6385939727526188]},"properties":{"TOWN":"Tombe","wanted":0,"POINT_X":34.8801196491,"POINT_Y":-0.638593972753,"NOFBI_Stru":""}},
{"type":"Feature","geometry":{"type":"Point","coordinates":[34.80852528837351,-0.787936720975042]},"properties":{"TOWN":"Igare","wanted":0,"POINT_X":34.8085252884,"POINT_Y":-0.787936720975,"NOFBI_Stru":""}},
{"type":"Feature","geometry":{"type":"Point","coordinates":[34.92492319206519,-0.6651066984882013]},"properties":{"TOWN":"Magombo","wanted":0,"POINT_X":34.9249231921,"POINT_Y":-0.665106698488,"NOFBI_Stru":""}},
{"type":"Feature","geometry":{"type":"Point","coordinates":[34.850549006920915,-0.71600716879352]},"properties":{"TOWN":"Keumbu","wanted":0,"POINT_X":34.8505490069,"POINT_Y":-0.716007168794,"NOFBI_Stru":""}},
{"type":"Feature","geometry":{"type":"Point","coordinates":[34.80369306411497,-0.5748461002479885]},"properties":{"TOWN":"Marani","wanted":0,"POINT_X":34.8036930641,"POINT_Y":-0.574846100248,"NOFBI_Stru":""}},
{"type":"Feature","geometry":{"type":"Point","coordinates":[34.8542436125122,-0.3013503548809084]},"properties":{"TOWN":"Kusa","wanted":0,"POINT_X":34.8542436125,"POINT_Y":-0.301350354881,"NOFBI_Stru":""}},
{"type":"Feature","geometry":{"type":"Point","coordinates":[34.94086977083982,-0.28804425566476743]},"properties":{"TOWN":"Paponditi","wanted":0,"POINT_X":34.9408697708,"POINT_Y":-0.288044255665,"NOFBI_Stru":""}},
{"type":"Feature","geometry":{"type":"Point","coordinates":[34.88614518831696,-0.4382974051708256]},"properties":{"TOWN":"Kabondo","wanted":0,"POINT_X":34.8861451883,"POINT_Y":-0.438297405171,"NOFBI_Stru":""}},
{"type":"Feature","geometry":{"type":"Point","coordinates":[34.92262915087963,-0.15647205177128637]},"properties":{"TOWN":"Ahero","wanted":0,"POINT_X":34.9226291509,"POINT_Y":-0.156472051771,"NOFBI_Stru":""}},
{"type":"Feature","geometry":{"type":"Point","coordinates":[34.90980406627526,-0.507963188015775]},"properties":{"TOWN":"Nyamanya","wanted":0,"POINT_X":34.9098040663,"POINT_Y":-0.507963188016,"NOFBI_Stru":""}},
{"type":"Feature","geometry":{"type":"Point","coordinates":[34.81084058347103,-0.05750159891246413]},"properties":{"TOWN":"Kibos","wanted":0,"POINT_X":34.8108405835,"POINT_Y":-0.0575015989125,"NOFBI_Stru":""}},
{"type":"Feature","geometry":{"type":"Point","coordinates":[34.84929216654162,0.13808738803872958]},"properties":{"TOWN":"Kaimosi","wanted":0,"POINT_X":34.8492921665,"POINT_Y":0.138087388039,"NOFBI_Stru":""}},
{"type":"Feature","geometry":{"type":"Point","coordinates":[34.87658250401564,-1.0099622925772846]},"properties":{"TOWN":"Kilgoris","wanted":0,"POINT_X":34.876582504,"POINT_Y":-1.00996229258,"NOFBI_Stru":""}},
{"type":"Feature","geometry":{"type":"Point","coordinates":[34.70947188576427,0.8555901859991829]},"properties":{"TOWN":"Kapsakwony","wanted":0,"POINT_X":34.7094718858,"POINT_Y":0.855590185999,"NOFBI_Stru":""}},
{"type":"Feature","geometry":{"type":"Point","coordinates":[34.71151390513391,0.79948592483045]},"properties":{"TOWN":"Kimilili","wanted":0,"POINT_X":34.7115139051,"POINT_Y":0.79948592483,"NOFBI_Stru":""}},
{"type":"Feature","geometry":{"type":"Point","coordinates":[34.79274823306388,0.8451696861034793]},"properties":{"TOWN":"Chesamisi","wanted":0,"POINT_X":34.7927482331,"POINT_Y":0.845169686103,"NOFBI_Stru":""}},
{"type":"Feature","geometry":{"type":"Point","coordinates":[34.75044180043735,0.7281212036778186]},"properties":{"TOWN":"Misikshu","wanted":0,"POINT_X":34.7504418004,"POINT_Y":0.728121203678,"NOFBI_Stru":""}},
{"type":"Feature","geometry":{"type":"Point","coordinates":[34.76500154791193,0.619013994608843]},"properties":{"TOWN":"Webuye","wanted":0,"POINT_X":34.7650015479,"POINT_Y":0.619013994609,"NOFBI_Stru":"TLK (OFC Terminals)"}},
{"type":"Feature","geometry":{"type":"Point","coordinates":[34.68915497458182,0.6354773421067769]},"properties":{"TOWN":"Matsi","wanted":0,"POINT_X":34.6891549746,"POINT_Y":0.635477342107,"NOFBI_Stru":""}},
{"type":"Feature","geometry":{"type":"Point","coordinates":[34.65605290575145,0.7249542752250493]},"properties":{"TOWN":"Bokoli","wanted":0,"POINT_X":34.6560529058,"POINT_Y":0.724954275225,"NOFBI_Stru":""}},
{"type":"Feature","geometry":{"type":"Point","coordinates":[34.6842321406212,0.6788325317580194]},"properties":{"TOWN":"Miendo","wanted":0,"POINT_X":34.6842321406,"POINT_Y":0.678832531758,"NOFBI_Stru":""}},
{"type":"Feature","geometry":{"type":"Point","coordinates":[34.771338875741264,0.213608453334588]},"properties":{"TOWN":"Khayega","wanted":0,"POINT_X":34.7713388757,"POINT_Y":0.213608453335,"NOFBI_Stru":""}},
{"type":"Feature","geometry":{"type":"Point","coordinates":[34.750314883675514,0.2912159837002054]},"properties":{"TOWN":"Kakamega","wanted":0,"POINT_X":34.7503148837,"POINT_Y":0.2912159837,"NOFBI_Stru":"County Headquaters"}},
{"type":"Feature","geometry":{"type":"Point","coordinates":[34.66416147078586,0.21550423371201916]},"properties":{"TOWN":"Musoli","wanted":0,"POINT_X":34.6641614708,"POINT_Y":0.215504233712,"NOFBI_Stru":""}},
{"type":"Feature","geometry":{"type":"Point","coordinates":[34.696233187015615,0.37060547153838824]},"properties":{"TOWN":"Butsotso","wanted":0,"POINT_X":34.696233187,"POINT_Y":0.370605471538,"NOFBI_Stru":""}},
{"type":"Feature","geometry":{"type":"Point","coordinates":[34.7226472433974,0.35216427557291907]},"properties":{"TOWN":"Ingotse","wanted":0,"POINT_X":34.7226472434,"POINT_Y":0.352164275573,"NOFBI_Stru":""}},
{"type":"Feature","geometry":{"type":"Point","coordinates":[34.666700877000714,0.4009897947345785]},"properties":{"TOWN":"Nambacha","wanted":0,"POINT_X":34.666700877,"POINT_Y":0.400989794735,"NOFBI_Stru":""}},
{"type":"Feature","geometry":{"type":"Point","coordinates":[34.65665114792142,0.4315713762142782]},"properties":{"TOWN":"Chebuyusa","wanted":0,"POINT_X":34.6566511479,"POINT_Y":0.431571376214,"NOFBI_Stru":""}},
{"type":"Feature","geometry":{"type":"Point","coordinates":[34.865892733922564,1.0848846718934935]},"properties":{"TOWN":"Endebes","wanted":0,"POINT_X":34.8658927339,"POINT_Y":1.08488467189,"NOFBI_Stru":""}},
{"type":"Feature","geometry":{"type":"Point","coordinates":[34.92353465843676,1.2737077008252866]},"properties":{"TOWN":"Kanyankwat","wanted":0,"POINT_X":34.9235346584,"POINT_Y":1.27370770083,"NOFBI_Stru":""}},
{"type":"Feature","geometry":{"type":"Point","coordinates":[34.92532885790194,0.9085397558682774]},"properties":{"TOWN":"Kiminini","wanted":0,"POINT_X":34.9253288579,"POINT_Y":0.908539755868,"NOFBI_Stru":""}},
{"type":"Feature","geometry":{"type":"Point","coordinates":[34.841887913111734,0.9556339263848477]},"properties":{"TOWN":"Saboti","wanted":0,"POINT_X":34.8418879131,"POINT_Y":0.955633926385,"NOFBI_Stru":""}},
{"type":"Feature","geometry":{"type":"Point","coordinates":[34.87096212242659,0.663455616827199]},"properties":{"TOWN":"Lugari","wanted":0,"POINT_X":34.8709621224,"POINT_Y":0.663455616827,"NOFBI_Stru":""}},
{"type":"Feature","geometry":{"type":"Point","coordinates":[34.944997509338485,0.30366978964257635]},"properties":{"TOWN":"Vihiga","wanted":0,"POINT_X":34.9449975093,"POINT_Y":0.303669789643,"NOFBI_Stru":"County Headquaters"}},
{"type":"Feature","geometry":{"type":"Point","coordinates":[34.81750763945741,0.24176650134273778]},"properties":{"TOWN":"Shinyalu","wanted":0,"POINT_X":34.8175076395,"POINT_Y":0.241766501343,"NOFBI_Stru":""}},
{"type":"Feature","geometry":{"type":"Point","coordinates":[34.811096035295215,0.3493174421933407]},"properties":{"TOWN":"Lubao","wanted":0,"POINT_X":34.8110960353,"POINT_Y":0.349317442193,"NOFBI_Stru":""}},
{"type":"Feature","geometry":{"type":"Point","coordinates":[34.85184875470048,0.3946231988396343]},"properties":{"TOWN":"Mwanza","wanted":0,"POINT_X":34.8518487547,"POINT_Y":0.39462319884,"NOFBI_Stru":""}},
{"type":"Feature","geometry":{"type":"Point","coordinates":[34.85419897079492,0.4589941024272578]},"properties":{"TOWN":"Malava","wanted":0,"POINT_X":34.8541989708,"POINT_Y":0.458994102427,"NOFBI_Stru":""}},
{"type":"Feature","geometry":{"type":"Point","coordinates":[34.95244804276806,-0.7593238466495351]},"properties":{"TOWN":"Keroka","wanted":0,"POINT_X":34.9524480428,"POINT_Y":-0.75932384665,"NOFBI_Stru":""}},
{"type":"Feature","geometry":{"type":"Point","coordinates":[35.01502633452539,-0.37332718098790363]},"properties":{"TOWN":"Sondu","wanted":0,"POINT_X":35.0150263345,"POINT_Y":-0.373327180988,"NOFBI_Stru":""}},
{"type":"Feature","geometry":{"type":"Point","coordinates":[35.079879380082964,-0.4316966622010459]},"properties":{"TOWN":"Kabeneti","wanted":0,"POINT_X":35.0798793801,"POINT_Y":-0.431696662201,"NOFBI_Stru":""}},
{"type":"Feature","geometry":{"type":"Point","coordinates":[35.088494335591335,-0.6724688915965631]},"properties":{"TOWN":"Chebilat","wanted":0,"POINT_X":35.0884943356,"POINT_Y":-0.672468891597,"NOFBI_Stru":""}},
{"type":"Feature","geometry":{"type":"Point","coordinates":[35.01556885955803,-0.7445248883870851]},"properties":{"TOWN":"Menyenya","wanted":0,"POINT_X":35.0155688596,"POINT_Y":-0.744524888387,"NOFBI_Stru":""}},
{"type":"Feature","geometry":{"type":"Point","coordinates":[34.98361299090862,-0.04889204969415431]},"properties":{"TOWN":"Miwani","wanted":0,"POINT_X":34.9836129909,"POINT_Y":-0.0488920496942,"NOFBI_Stru":""}},
{"type":"Feature","geometry":{"type":"Point","coordinates":[35.05224537223268,-0.021241392042617827]},"properties":{"TOWN":"Chemase","wanted":0,"POINT_X":35.0522453722,"POINT_Y":-0.0212413920426,"NOFBI_Stru":""}},
{"type":"Feature","geometry":{"type":"Point","coordinates":[34.98234173806699,0.07304111733246085]},"properties":{"TOWN":"Kobujoi","wanted":0,"POINT_X":34.9823417381,"POINT_Y":0.0730411173325,"NOFBI_Stru":""}},
{"type":"Feature","geometry":{"type":"Point","coordinates":[34.99754764144202,-0.5159838455962034]},"properties":{"TOWN":"Ikonge","wanted":0,"POINT_X":34.9975476414,"POINT_Y":-0.515983845596,"NOFBI_Stru":""}},
{"type":"Feature","geometry":{"type":"Point","coordinates":[35.07526399859179,0.08456291986595948]},"properties":{"TOWN":"Kaptumo","wanted":0,"POINT_X":35.0752639986,"POINT_Y":0.084562919866,"NOFBI_Stru":""}},
{"type":"Feature","geometry":{"type":"Point","coordinates":[35.19815819976872,-0.5702017859369964]},"properties":{"TOWN":"Litein","wanted":0,"POINT_X":35.1981581998,"POINT_Y":-0.570201785937,"NOFBI_Stru":""}},
{"type":"Feature","geometry":{"type":"Point","coordinates":[35.14069279706086,-0.4293501484189427]},"properties":{"TOWN":"Kabianga","wanted":0,"POINT_X":35.1406927971,"POINT_Y":-0.429350148419,"NOFBI_Stru":""}},
{"type":"Feature","geometry":{"type":"Point","coordinates":[35.181449519013206,-0.3434076862028271]},"properties":{"TOWN":"Sosiot","wanted":0,"POINT_X":35.181449519,"POINT_Y":-0.343407686203,"NOFBI_Stru":""}},
{"type":"Feature","geometry":{"type":"Point","coordinates":[35.21715141575474,-0.8911467215438362]},"properties":{"TOWN":"Siongiroi","wanted":0,"POINT_X":35.2171514158,"POINT_Y":-0.891146721544,"NOFBI_Stru":""}},
{"type":"Feature","geometry":{"type":"Point","coordinates":[35.10228452417084,-0.8265394569379534]},"properties":{"TOWN":"Ndanai","wanted":0,"POINT_X":35.1022845242,"POINT_Y":-0.826539456938,"NOFBI_Stru":""}},
{"type":"Feature","geometry":{"type":"Point","coordinates":[35.13501625439089,-0.7763036171974331]},"properties":{"TOWN":"Kapketet","wanted":0,"POINT_X":35.1350162544,"POINT_Y":-0.776303617197,"NOFBI_Stru":""}},
{"type":"Feature","geometry":{"type":"Point","coordinates":[35.21978730642714,-0.7304161289018078]},"properties":{"TOWN":"Chebole","wanted":0,"POINT_X":35.2197873064,"POINT_Y":-0.730416128902,"NOFBI_Stru":""}},
{"type":"Feature","geometry":{"type":"Point","coordinates":[35.124742396860555,-0.6708806986661071]},"properties":{"TOWN":"Sotik","wanted":0,"POINT_X":35.1247423969,"POINT_Y":-0.670880698666,"NOFBI_Stru":""}},
{"type":"Feature","geometry":{"type":"Point","coordinates":[35.20021255616665,-0.6142436997531974]},"properties":{"TOWN":"Kapkatek","wanted":0,"POINT_X":35.2002125562,"POINT_Y":-0.614243699753,"NOFBI_Stru":""}},
{"type":"Feature","geometry":{"type":"Point","coordinates":[35.19108886772142,0.12232062721828658]},"properties":{"TOWN":"Nandi Hills","wanted":0,"POINT_X":35.1910888677,"POINT_Y":0.122320627218,"NOFBI_Stru":""}},
{"type":"Feature","geometry":{"type":"Point","coordinates":[35.21946509338201,-0.03819232382949781]},"properties":{"TOWN":"Songhor","wanted":0,"POINT_X":35.2194650934,"POINT_Y":-0.0381923238295,"NOFBI_Stru":""}},
{"type":"Feature","geometry":{"type":"Point","coordinates":[35.189717834248064,-0.12975930113790826]},"properties":{"TOWN":"Muhoroni","wanted":0,"POINT_X":35.1897178342,"POINT_Y":-0.129759301138,"NOFBI_Stru":"TLK (OFC Terminals)"}},
{"type":"Feature","geometry":{"type":"Point","coordinates":[35.12705693325805,-0.0832943662327361]},"properties":{"TOWN":"Chemilil","wanted":0,"POINT_X":35.1270569333,"POINT_Y":-0.0832943662327,"NOFBI_Stru":""}},
{"type":"Feature","geometry":{"type":"Point","coordinates":[35.11192235693727,-0.4937902180540841]},"properties":{"TOWN":"Roret","wanted":0,"POINT_X":35.1119223569,"POINT_Y":-0.493790218054,"NOFBI_Stru":""}},
{"type":"Feature","geometry":{"type":"Point","coordinates":[35.23278328930687,-1.570667203395164]},"properties":{"TOWN":"Keekorok Lodge","wanted":0,"POINT_X":35.2327832893,"POINT_Y":-1.5706672034,"NOFBI_Stru":""}},
{"type":"Feature","geometry":{"type":"Point","coordinates":[35.061727679180066,1.2275120376197068]},"properties":{"TOWN":"Keringe","wanted":0,"POINT_X":35.0617276792,"POINT_Y":1.22751203762,"NOFBI_Stru":""}},
{"type":"Feature","geometry":{"type":"Point","coordinates":[35.01990542677054,1.0331561876146287]},"properties":{"TOWN":"Kitale","wanted":0,"POINT_X":35.0199054268,"POINT_Y":1.03315618761,"NOFBI_Stru":"County Headquaters"}},
{"type":"Feature","geometry":{"type":"Point","coordinates":[35.08933259930746,1.1061740641097961]},"properties":{"TOWN":"Kipsain","wanted":0,"POINT_X":35.0893325993,"POINT_Y":1.10617406411,"NOFBI_Stru":""}},
{"type":"Feature","geometry":{"type":"Point","coordinates":[35.0223698067237,1.4903758253171775]},"properties":{"TOWN":"Kacheliba","wanted":0,"POINT_X":35.0223698067,"POINT_Y":1.49037582532,"NOFBI_Stru":""}},
{"type":"Feature","geometry":{"type":"Point","coordinates":[35.06331596647634,1.8051021259679363]},"properties":{"TOWN":"Kunyuo","wanted":0,"POINT_X":35.0633159665,"POINT_Y":1.80510212597,"NOFBI_Stru":""}},
{"type":"Feature","geometry":{"type":"Point","coordinates":[34.994802554076344,0.851601096917302]},"properties":{"TOWN":"Ndalu","wanted":0,"POINT_X":34.9948025541,"POINT_Y":0.851601096917,"NOFBI_Stru":""}},
{"type":"Feature","geometry":{"type":"Point","coordinates":[35.04918775453301,0.6548612205950068]},"properties":{"TOWN":"Turbo","wanted":0,"POINT_X":35.0491877545,"POINT_Y":0.654861220595,"NOFBI_Stru":""}},
{"type":"Feature","geometry":{"type":"Point","coordinates":[34.95277799612646,0.20199950529533886]},"properties":{"TOWN":"Kapkangani","wanted":0,"POINT_X":34.9527779961,"POINT_Y":0.201999505295,"NOFBI_Stru":""}},
{"type":"Feature","geometry":{"type":"Point","coordinates":[35.240660681641614,1.474293242644246]},"properties":{"TOWN":"Chekopegh","wanted":0,"POINT_X":35.2406606816,"POINT_Y":1.47429324264,"NOFBI_Stru":""}},
{"type":"Feature","geometry":{"type":"Point","coordinates":[35.22507858646786,1.3254859340561855]},"properties":{"TOWN":"Chepareria","wanted":0,"POINT_X":35.2250785865,"POINT_Y":1.32548593406,"NOFBI_Stru":""}},
{"type":"Feature","geometry":{"type":"Point","coordinates":[35.1078317329422,1.27337748191387]},"properties":{"TOWN":"Makutano","wanted":0,"POINT_X":35.1078317329,"POINT_Y":1.27337748191,"NOFBI_Stru":""}},
{"type":"Feature","geometry":{"type":"Point","coordinates":[35.220376048199526,0.9973877117485512]},"properties":{"TOWN":"Cherangani","wanted":0,"POINT_X":35.2203760482,"POINT_Y":0.997387711749,"NOFBI_Stru":""}},
{"type":"Feature","geometry":{"type":"Point","coordinates":[35.120951895663815,0.8984487621620406]},"properties":{"TOWN":"Moi's Bridge","wanted":0,"POINT_X":35.1209518957,"POINT_Y":0.898448762162,"NOFBI_Stru":""}},
{"type":"Feature","geometry":{"type":"Point","coordinates":[35.15970388673395,0.6903563574763485]},"properties":{"TOWN":"Soy","wanted":0,"POINT_X":35.1597038867,"POINT_Y":0.690356357476,"NOFBI_Stru":""}},
{"type":"Feature","geometry":{"type":"Point","coordinates":[35.11200684499292,0.5344064966201775]},"properties":{"TOWN":"Kaigat","wanted":0,"POINT_X":35.112006845,"POINT_Y":0.53440649662,"NOFBI_Stru":""}},
{"type":"Feature","geometry":{"type":"Point","coordinates":[35.110666892410705,0.22172877372531796]},"properties":{"TOWN":"Kapsabet","wanted":0,"POINT_X":35.1106668924,"POINT_Y":0.221728773725,"NOFBI_Stru":"County Headquaters"}},
{"type":"Feature","geometry":{"type":"Point","coordinates":[35.205763577235096,0.22494574837336992]},"properties":{"TOWN":"Arwos","wanted":0,"POINT_X":35.2057635772,"POINT_Y":0.224945748373,"NOFBI_Stru":""}},
{"type":"Feature","geometry":{"type":"Point","coordinates":[35.16118194743379,0.3366915919182766]},"properties":{"TOWN":"Chepterit","wanted":0,"POINT_X":35.1611819474,"POINT_Y":0.336691591918,"NOFBI_Stru":""}},
{"type":"Feature","geometry":{"type":"Point","coordinates":[35.289787551603766,-0.3535717844670037]},"properties":{"TOWN":"Kericho","wanted":0,"POINT_X":35.2897875516,"POINT_Y":-0.353571784467,"NOFBI_Stru":"County Headquaters"}},
{"type":"Feature","geometry":{"type":"Point","coordinates":[35.30588458065261,-0.905580986967321]},"properties":{"TOWN":"Sigor","wanted":0,"POINT_X":35.3058845807,"POINT_Y":-0.905580986967,"NOFBI_Stru":""}},
{"type":"Feature","geometry":{"type":"Point","coordinates":[35.35099239696243,-0.769320681941668]},"properties":{"TOWN":"Bomet","wanted":0,"POINT_X":35.350992397,"POINT_Y":-0.769320681942,"NOFBI_Stru":"County Headquaters"}},
{"type":"Feature","geometry":{"type":"Point","coordinates":[35.35148879060831,-0.7069910780349808]},"properties":{"TOWN":"Silibwet","wanted":0,"POINT_X":35.3514887906,"POINT_Y":-0.706991078035,"NOFBI_Stru":""}},
{"type":"Feature","geometry":{"type":"Point","coordinates":[35.3782755426099,-0.6568360450735863]},"properties":{"TOWN":"Ndaraweta","wanted":0,"POINT_X":35.3782755426,"POINT_Y":-0.656836045074,"NOFBI_Stru":""}},
{"type":"Feature","geometry":{"type":"Point","coordinates":[35.356493376883435,-0.7294908526873719]},"properties":{"TOWN":"Tenwet","wanted":0,"POINT_X":35.3564933769,"POINT_Y":-0.729490852687,"NOFBI_Stru":""}},
{"type":"Feature","geometry":{"type":"Point","coordinates":[35.31322465830647,0.020378541996053996]},"properties":{"TOWN":"Mtetei","wanted":0,"POINT_X":35.3132246583,"POINT_Y":0.0203785419961,"NOFBI_Stru":""}},
{"type":"Feature","geometry":{"type":"Point","coordinates":[35.276845268162916,-0.28735303593067646]},"properties":{"TOWN":"Ainamoi","wanted":0,"POINT_X":35.2768452682,"POINT_Y":-0.287353035931,"NOFBI_Stru":""}},
{"type":"Feature","geometry":{"type":"Point","coordinates":[35.351389121581875,-0.184095047207936]},"properties":{"TOWN":"Fort Tenan","wanted":0,"POINT_X":35.3513891216,"POINT_Y":-0.184095047208,"NOFBI_Stru":""}},
{"type":"Feature","geometry":{"type":"Point","coordinates":[35.44235509308922,-0.259503161600374]},"properties":{"TOWN":"Chepsoen","wanted":0,"POINT_X":35.4423550931,"POINT_Y":-0.2595031616,"NOFBI_Stru":""}},
{"type":"Feature","geometry":{"type":"Point","coordinates":[35.46622751158802,-0.17626963880236082]},"properties":{"TOWN":"Kipkelion","wanted":0,"POINT_X":35.4662275116,"POINT_Y":-0.176269638802,"NOFBI_Stru":""}},
{"type":"Feature","geometry":{"type":"Point","coordinates":[35.40028072893707,-0.842789137923273]},"properties":{"TOWN":"Longisa","wanted":0,"POINT_X":35.4002807289,"POINT_Y":-0.842789137923,"NOFBI_Stru":""}},
{"type":"Feature","geometry":{"type":"Point","coordinates":[35.42900511981015,-0.913096011015099]},"properties":{"TOWN":"Mulot","wanted":0,"POINT_X":35.4290051198,"POINT_Y":-0.913096011015,"NOFBI_Stru":""}},
{"type":"Feature","geometry":{"type":"Point","coordinates":[35.47532881032314,0.15666214190197655]},"properties":{"TOWN":"Nabkoi","wanted":0,"POINT_X":35.4753288103,"POINT_Y":0.156662141902,"NOFBI_Stru":""}},
{"type":"Feature","geometry":{"type":"Point","coordinates":[35.489834592892905,-1.0372361322535628]},"properties":{"TOWN":"Ngorengore","wanted":0,"POINT_X":35.4898345929,"POINT_Y":-1.03723613225,"NOFBI_Stru":""}},
{"type":"Feature","geometry":{"type":"Point","coordinates":[35.343646219727276,1.0508772728765607]},"properties":{"TOWN":"Kapcherop","wanted":0,"POINT_X":35.3436462197,"POINT_Y":1.05087727288,"NOFBI_Stru":""}},
{"type":"Feature","geometry":{"type":"Point","coordinates":[35.30335647751065,1.6196501425620404]},"properties":{"TOWN":"Chepunyal","wanted":0,"POINT_X":35.3033564775,"POINT_Y":1.61965014256,"NOFBI_Stru":""}},
{"type":"Feature","geometry":{"type":"Point","coordinates":[35.35278723069832,1.414735257022352]},"properties":{"TOWN":"Chebit","wanted":0,"POINT_X":35.3527872307,"POINT_Y":1.41473525702,"NOFBI_Stru":""}},
{"type":"Feature","geometry":{"type":"Point","coordinates":[35.25598332467158,1.6708496706194471]},"properties":{"TOWN":"Ptoyo","wanted":0,"POINT_X":35.2559833247,"POINT_Y":1.67084967062,"NOFBI_Stru":""}},
{"type":"Feature","geometry":{"type":"Point","coordinates":[35.38664748013864,0.8359400667607026]},"properties":{"TOWN":"Moiben","wanted":0,"POINT_X":35.3866474801,"POINT_Y":0.835940066761,"NOFBI_Stru":""}},
{"type":"Feature","geometry":{"type":"Point","coordinates":[35.39217865270829,0.961632192199618]},"properties":{"TOWN":"Cheborowa","wanted":0,"POINT_X":35.3921786527,"POINT_Y":0.9616321922,"NOFBI_Stru":""}},
{"type":"Feature","geometry":{"type":"Point","coordinates":[35.369627600433205,0.5377157490778643]},"properties":{"TOWN":"Chepkoilel","wanted":0,"POINT_X":35.3696276004,"POINT_Y":0.537715749078,"NOFBI_Stru":""}},
{"type":"Feature","geometry":{"type":"Point","coordinates":[35.277539895836284,0.5345565264109509]},"properties":{"TOWN":"Eldoret","wanted":0,"POINT_X":35.2775398958,"POINT_Y":0.534556526411,"NOFBI_Stru":"County Headquaters"}},
{"type":"Feature","geometry":{"type":"Point","coordinates":[35.309838391585394,0.2282540311563757]},"properties":{"TOWN":"Lessos","wanted":0,"POINT_X":35.3098383916,"POINT_Y":0.228254031156,"NOFBI_Stru":""}},
{"type":"Feature","geometry":{"type":"Point","coordinates":[35.33221479793376,0.3107512643401432]},"properties":{"TOWN":"Kesses","wanted":0,"POINT_X":35.3322147979,"POINT_Y":0.31075126434,"NOFBI_Stru":""}},
{"type":"Feature","geometry":{"type":"Point","coordinates":[35.523475620202014,1.788799258559749]},"properties":{"TOWN":"Kainuk","wanted":0,"POINT_X":35.5234756202,"POINT_Y":1.78879925856,"NOFBI_Stru":""}},
{"type":"Feature","geometry":{"type":"Point","coordinates":[35.48908310996282,1.5021554127979628]},"properties":{"TOWN":"Sigor","wanted":0,"POINT_X":35.48908311,"POINT_Y":1.5021554128,"NOFBI_Stru":""}},
{"type":"Feature","geometry":{"type":"Point","coordinates":[35.53114427536454,0.1816207652002498]},"properties":{"TOWN":"Ainabkoi","wanted":0,"POINT_X":35.5311442754,"POINT_Y":0.1816207652,"NOFBI_Stru":""}},
{"type":"Feature","geometry":{"type":"Point","coordinates":[35.52899583979636,0.6070069560860253]},"properties":{"TOWN":"Tambach","wanted":0,"POINT_X":35.5289958398,"POINT_Y":0.607006956086,"NOFBI_Stru":""}},
{"type":"Feature","geometry":{"type":"Point","coordinates":[35.512455491225005,0.6898458206397644]},"properties":{"TOWN":"Iten","wanted":0,"POINT_X":35.5124554912,"POINT_Y":0.68984582064,"NOFBI_Stru":"County Headquaters"}},
{"type":"Feature","geometry":{"type":"Point","coordinates":[35.44088251720601,0.22959399905404365]},"properties":{"TOWN":"Burnt Forest","wanted":0,"POINT_X":35.4408825172,"POINT_Y":0.229593999054,"NOFBI_Stru":""}},
{"type":"Feature","geometry":{"type":"Point","coordinates":[35.81155665389153,-1.69541083490904]},"properties":{"TOWN":"Morijo","wanted":0,"POINT_X":35.8115566539,"POINT_Y":-1.69541083491,"NOFBI_Stru":""}},
{"type":"Feature","geometry":{"type":"Point","coordinates":[35.566406541069355,-0.20476382385119107]},"properties":{"TOWN":"Kedowa","wanted":0,"POINT_X":35.5664065411,"POINT_Y":-0.204763823851,"NOFBI_Stru":""}},
{"type":"Feature","geometry":{"type":"Point","coordinates":[35.60030020450403,-0.14696747277310818]},"properties":{"TOWN":"Londiani","wanted":0,"POINT_X":35.6003002045,"POINT_Y":-0.146967472773,"NOFBI_Stru":"TLK (OFC Terminals)"}},
{"type":"Feature","geometry":{"type":"Point","coordinates":[35.546706907573174,-0.8096939994951301]},"properties":{"TOWN":"Songor","wanted":0,"POINT_X":35.5467069076,"POINT_Y":-0.809693999495,"NOFBI_Stru":""}},
{"type":"Feature","geometry":{"type":"Point","coordinates":[35.67304265911464,-0.6419572505711968]},"properties":{"TOWN":"Chebakundi","wanted":0,"POINT_X":35.6730426591,"POINT_Y":-0.641957250571,"NOFBI_Stru":""}},
{"type":"Feature","geometry":{"type":"Point","coordinates":[35.68451587803702,-0.15323777990299525]},"properties":{"TOWN":"Mau Summit","wanted":0,"POINT_X":35.684515878,"POINT_Y":-0.153237779903,"NOFBI_Stru":"TLK (OFC Terminals)"}},
{"type":"Feature","geometry":{"type":"Point","coordinates":[35.64369012889479,-0.044508005246907886]},"properties":{"TOWN":"Makutano","wanted":0,"POINT_X":35.6436901289,"POINT_Y":-0.0445080052469,"NOFBI_Stru":""}},
{"type":"Feature","geometry":{"type":"Point","coordinates":[35.54712100170683,0.08457767902455077]},"properties":{"TOWN":"Timboroa","wanted":0,"POINT_X":35.5471210017,"POINT_Y":0.0845776790246,"NOFBI_Stru":""}},
{"type":"Feature","geometry":{"type":"Point","coordinates":[35.64476956242058,-1.009959908189563]},"properties":{"TOWN":"Olulunga","wanted":0,"POINT_X":35.6447695624,"POINT_Y":-1.00995990819,"NOFBI_Stru":""}},
{"type":"Feature","geometry":{"type":"Point","coordinates":[35.65382961482881,-1.6031403456264879]},"properties":{"TOWN":"Naikara","wanted":0,"POINT_X":35.6538296148,"POINT_Y":-1.60314034563,"NOFBI_Stru":""}},
{"type":"Feature","geometry":{"type":"Point","coordinates":[35.80611157438265,-0.5313202749697759]},"properties":{"TOWN":"Shabaltaragwa","wanted":0,"POINT_X":35.8061115744,"POINT_Y":-0.53132027497,"NOFBI_Stru":""}},
{"type":"Feature","geometry":{"type":"Point","coordinates":[35.704898366414106,-0.5668415430780779]},"properties":{"TOWN":"Olenguruone","wanted":0,"POINT_X":35.7048983664,"POINT_Y":-0.566841543078,"NOFBI_Stru":""}},
{"type":"Feature","geometry":{"type":"Point","coordinates":[35.825138652908436,-0.2815721037342286]},"properties":{"TOWN":"Elburgon","wanted":2,"POINT_X":35.8251386529,"POINT_Y":-0.281572103734,"NOFBI_Stru":""}},
{"type":"Feature","geometry":{"type":"Point","coordinates":[35.73924707675554,-0.23015758621982568]},"properties":{"TOWN":"Molo","wanted":0,"POINT_X":35.7392470768,"POINT_Y":-0.23015758622,"NOFBI_Stru":""}},
{"type":"Feature","geometry":{"type":"Point","coordinates":[35.831937740297725,0.12640003984171755]},"properties":{"TOWN":"Saos","wanted":2,"POINT_X":35.8319377403,"POINT_Y":0.126400039842,"NOFBI_Stru":""}},
{"type":"Feature","geometry":{"type":"Point","coordinates":[35.73675895300082,0.06411326814487925]},"properties":{"TOWN":"Eldama Ravine","wanted":0,"POINT_X":35.736758953,"POINT_Y":0.0641132681449,"NOFBI_Stru":""}},
{"type":"Feature","geometry":{"type":"Point","coordinates":[35.75426192720624,-1.145262449670801]},"properties":{"TOWN":"Ewaso Ngiro","wanted":0,"POINT_X":35.7542619272,"POINT_Y":-1.14526244967,"NOFBI_Stru":""}},
{"type":"Feature","geometry":{"type":"Point","coordinates":[35.61162356045244,1.0769556971955836]},"properties":{"TOWN":"Chesoi","wanted":0,"POINT_X":35.6116235605,"POINT_Y":1.0769556972,"NOFBI_Stru":""}},
{"type":"Feature","geometry":{"type":"Point","coordinates":[35.67363720815311,1.221398582821701]},"properties":{"TOWN":"Tot","wanted":0,"POINT_X":35.6736372082,"POINT_Y":1.22139858282,"NOFBI_Stru":""}},
{"type":"Feature","geometry":{"type":"Point","coordinates":[35.6468248256705,1.7490837893216056]},"properties":{"TOWN":"Lolongot","wanted":0,"POINT_X":35.6468248257,"POINT_Y":1.74908378932,"NOFBI_Stru":""}},
{"type":"Feature","geometry":{"type":"Point","coordinates":[35.57718037195359,0.21947978466169496]},"properties":{"TOWN":"Kamwoso","wanted":0,"POINT_X":35.577180372,"POINT_Y":0.219479784662,"NOFBI_Stru":""}},
{"type":"Feature","geometry":{"type":"Point","coordinates":[35.629878120895505,0.19160684978718517]},"properties":{"TOWN":"Kipsaos","wanted":0,"POINT_X":35.6298781209,"POINT_Y":0.191606849787,"NOFBI_Stru":""}},
{"type":"Feature","geometry":{"type":"Point","coordinates":[35.57969852164601,0.34590707819048994]},"properties":{"TOWN":"Nyaru","wanted":0,"POINT_X":35.5796985216,"POINT_Y":0.34590707819,"NOFBI_Stru":""}},
{"type":"Feature","geometry":{"type":"Point","coordinates":[35.63816993130815,0.33902177746169965]},"properties":{"TOWN":"Kimwarer","wanted":0,"POINT_X":35.6381699313,"POINT_Y":0.339021777462,"NOFBI_Stru":""}},
{"type":"Feature","geometry":{"type":"Point","coordinates":[35.672962498267324,0.5859989348725658]},"properties":{"TOWN":"Kabluk","wanted":0,"POINT_X":35.6729624983,"POINT_Y":0.585998934873,"NOFBI_Stru":""}},
{"type":"Feature","geometry":{"type":"Point","coordinates":[35.56703123169247,1.0006880983598927]},"properties":{"TOWN":"Kapsowar","wanted":0,"POINT_X":35.5670312317,"POINT_Y":1.00068809836,"NOFBI_Stru":""}},
{"type":"Feature","geometry":{"type":"Point","coordinates":[35.775027025302975,1.2428864773484558]},"properties":{"TOWN":"Kolowa","wanted":0,"POINT_X":35.7750270253,"POINT_Y":1.24288647735,"NOFBI_Stru":""}},
{"type":"Feature","geometry":{"type":"Point","coordinates":[35.81056380827083,0.3190874136008248]},"properties":{"TOWN":"Tenges","wanted":0,"POINT_X":35.8105638083,"POINT_Y":0.319087413601,"NOFBI_Stru":""}},
{"type":"Feature","geometry":{"type":"Point","coordinates":[35.76002866732182,0.505474533080007]},"properties":{"TOWN":"Kabarnet","wanted":0,"POINT_X":35.7600286673,"POINT_Y":0.50547453308,"NOFBI_Stru":"County Headquaters"}},
{"type":"Feature","geometry":{"type":"Point","coordinates":[35.80026102521839,0.6590251326550535]},"properties":{"TOWN":"Kabartonjo","wanted":0,"POINT_X":35.8002610252,"POINT_Y":0.659025132655,"NOFBI_Stru":""}},
{"type":"Feature","geometry":{"type":"Point","coordinates":[35.83753524137584,0.7513392378554423]},"properties":{"TOWN":"Kipsoramon","wanted":2,"POINT_X":35.8375352414,"POINT_Y":0.751339237855,"NOFBI_Stru":""}},
{"type":"Feature","geometry":{"type":"Point","coordinates":[35.69554336150237,0.9503233748995815]},"properties":{"TOWN":"Kinyach","wanted":0,"POINT_X":35.6955433615,"POINT_Y":0.9503233749,"NOFBI_Stru":""}},
{"type":"Feature","geometry":{"type":"Point","coordinates":[35.84118487139633,-0.9018180050347117]},"properties":{"TOWN":"Ngareta","wanted":2,"POINT_X":35.8411848714,"POINT_Y":-0.901818005035,"NOFBI_Stru":""}},
{"type":"Feature","geometry":{"type":"Point","coordinates":[35.918079993044515,-0.6647650323090333]},"properties":{"TOWN":"Enangiperi","wanted":2,"POINT_X":35.918079993,"POINT_Y":-0.664765032309,"NOFBI_Stru":""}},
{"type":"Feature","geometry":{"type":"Point","coordinates":[35.94523739426206,-0.3124291177998892]},"properties":{"TOWN":"Njoro","wanted":0,"POINT_X":35.9452373943,"POINT_Y":-0.3124291178,"NOFBI_Stru":""}},
{"type":"Feature","geometry":{"type":"Point","coordinates":[35.94753595758971,-0.10710268835076922]},"properties":{"TOWN":"Kampi Ya Moto","wanted":0,"POINT_X":35.9475359576,"POINT_Y":-0.107102688351,"NOFBI_Stru":""}},
{"type":"Feature","geometry":{"type":"Point","coordinates":[35.86943755512051,-0.15427209428631097]},"properties":{"TOWN":"Rongai","wanted":2,"POINT_X":35.8694375551,"POINT_Y":-0.154272094286,"NOFBI_Stru":""}},
{"type":"Feature","geometry":{"type":"Point","coordinates":[35.97262572349864,-0.0014472323765761207]},"properties":{"TOWN":"Mogotio","wanted":0,"POINT_X":35.9726257235,"POINT_Y":-0.00144723237658,"NOFBI_Stru":""}},
{"type":"Feature","geometry":{"type":"Point","coordinates":[35.86529407785333,-1.0856689648628413]},"properties":{"TOWN":"Narok","wanted":2,"POINT_X":35.8652940779,"POINT_Y":-1.08566896486,"NOFBI_Stru":"County Headquaters"}},
{"type":"Feature","geometry":{"type":"Point","coordinates":[35.854384957347115,-1.531314339052311]},"properties":{"TOWN":"Narosura","wanted":2,"POINT_X":35.8543849573,"POINT_Y":-1.53131433905,"NOFBI_Stru":""}},
{"type":"Feature","geometry":{"type":"Point","coordinates":[36.062138891378055,-0.2846746130308549]},"properties":{"TOWN":"Nakuru","wanted":0,"POINT_X":36.0621388914,"POINT_Y":-0.284674613031,"NOFBI_Stru":"County Headquaters"}},
{"type":"Feature","geometry":{"type":"Point","coordinates":[36.13390477670375,-0.30525626480137097]},"properties":{"TOWN":"Lanet","wanted":0,"POINT_X":36.1339047767,"POINT_Y":-0.305256264801,"NOFBI_Stru":""}},
{"type":"Feature","geometry":{"type":"Point","coordinates":[36.04144257797644,-1.0092362119262617]},"properties":{"TOWN":"Olombokishi","wanted":0,"POINT_X":36.041442578,"POINT_Y":-1.00923621193,"NOFBI_Stru":""}},
{"type":"Feature","geometry":{"type":"Point","coordinates":[35.84415259213685,0.2491229607017113]},"properties":{"TOWN":"Cheberen","wanted":2,"POINT_X":35.8441525921,"POINT_Y":0.249122960702,"NOFBI_Stru":""}},
{"type":"Feature","geometry":{"type":"Point","coordinates":[35.87012852405659,0.49984438074658316]},"properties":{"TOWN":"Kamungei","wanted":2,"POINT_X":35.8701285241,"POINT_Y":0.499844380747,"NOFBI_Stru":""}},
{"type":"Feature","geometry":{"type":"Point","coordinates":[35.86506018521284,0.6163054943263062]},"properties":{"TOWN":"Kipcherere","wanted":2,"POINT_X":35.8650601852,"POINT_Y":0.616305494326,"NOFBI_Stru":""}},
{"type":"Feature","geometry":{"type":"Point","coordinates":[36.095672434818326,1.1758763979032705]},"properties":{"TOWN":"Kapedo","wanted":2,"POINT_X":36.0956724348,"POINT_Y":1.1758763979,"NOFBI_Stru":""}},
{"type":"Feature","geometry":{"type":"Point","coordinates":[36.0471450901287,1.6796856387294026]},"properties":{"TOWN":"Napeitom","wanted":2,"POINT_X":36.0471450901,"POINT_Y":1.67968563873,"NOFBI_Stru":""}},
{"type":"Feature","geometry":{"type":"Point","coordinates":[36.01140300480509,1.954727393614839]},"properties":{"TOWN":"Lokori","wanted":2,"POINT_X":36.0114030048,"POINT_Y":1.95472739361,"NOFBI_Stru":""}},
{"type":"Feature","geometry":{"type":"Point","coordinates":[36.01939388149049,0.7134958477014938]},"properties":{"TOWN":"Loruk","wanted":0,"POINT_X":36.0193938815,"POINT_Y":0.713495847701,"NOFBI_Stru":""}},
{"type":"Feature","geometry":{"type":"Point","coordinates":[36.06781727671882,0.43899900473087555]},"properties":{"TOWN":"Logomukum","wanted":0,"POINT_X":36.0678172767,"POINT_Y":0.438999004731,"NOFBI_Stru":""}},
{"type":"Feature","geometry":{"type":"Point","coordinates":[34.309765459599184,4.428668276495788]},"properties":{"TOWN":"Nadapal","wanted":0,"POINT_X":34.3097654596,"POINT_Y":4.4286682765,"NOFBI_Stru":""}},
{"type":"Feature","geometry":{"type":"Point","coordinates":[34.369634951124986,4.208893087660832]},"properties":{"TOWN":"Lokichokio","wanted":0,"POINT_X":34.3696349511,"POINT_Y":4.20889308766,"NOFBI_Stru":"ZTE (OFC Terminals)"}},
{"type":"Feature","geometry":{"type":"Point","coordinates":[34.8812403469744,3.7107208803594145]},"properties":{"TOWN":"Kakuma","wanted":0,"POINT_X":34.881240347,"POINT_Y":3.71072088036,"NOFBI_Stru":"ZTE (OFC Terminals)"}},
{"type":"Feature","geometry":{"type":"Point","coordinates":[34.987279909499335,2.5269409439821597]},"properties":{"TOWN":"Loiya","wanted":0,"POINT_X":34.9872799095,"POINT_Y":2.52694094398,"NOFBI_Stru":""}},
{"type":"Feature","geometry":{"type":"Point","coordinates":[35.02857426042858,2.266824696600404]},"properties":{"TOWN":"Alale","wanted":0,"POINT_X":35.0285742604,"POINT_Y":2.2668246966,"NOFBI_Stru":""}},
{"type":"Feature","geometry":{"type":"Point","coordinates":[35.11806695984898,2.7318440046679227]},"properties":{"TOWN":"Kagododoya","wanted":0,"POINT_X":35.1180669598,"POINT_Y":2.73184400467,"NOFBI_Stru":""}},
{"type":"Feature","geometry":{"type":"Point","coordinates":[35.324521573223144,3.634121074484434]},"properties":{"TOWN":"Makutano","wanted":0,"POINT_X":35.3245215732,"POINT_Y":3.63412107448,"NOFBI_Stru":""}},
{"type":"Feature","geometry":{"type":"Point","coordinates":[35.25933433302289,2.8890173889257262]},"properties":{"TOWN":"Lorukumu","wanted":0,"POINT_X":35.259334333,"POINT_Y":2.88901738893,"NOFBI_Stru":""}},
{"type":"Feature","geometry":{"type":"Point","coordinates":[35.61698380110763,3.1353015337194456]},"properties":{"TOWN":"Lodwar","wanted":0,"POINT_X":35.6169838011,"POINT_Y":3.13530153372,"NOFBI_Stru":"County Headquaters"}},
{"type":"Feature","geometry":{"type":"Point","coordinates":[35.67049018901674,2.395890171501802]},"properties":{"TOWN":"Lokichar","wanted":0,"POINT_X":35.670490189,"POINT_Y":2.3958901715,"NOFBI_Stru":"ZTE (OFC Terminals)"}},
{"type":"Feature","geometry":{"type":"Point","coordinates":[35.777361730434414,4.271102227799116]},"properties":{"TOWN":"Lokitung","wanted":0,"POINT_X":35.7773617304,"POINT_Y":4.2711022278,"NOFBI_Stru":""}},
{"type":"Feature","geometry":{"type":"Point","coordinates":[35.91717488518358,3.5392289354856072]},"properties":{"TOWN":"Kalakol","wanted":0,"POINT_X":35.9171748852,"POINT_Y":3.53922893549,"NOFBI_Stru":""}},
{"type":"Feature","geometry":{"type":"Point","coordinates":[35.87260218726295,2.3517996110845063]},"properties":{"TOWN":"Loperot","wanted":2,"POINT_X":35.8726021873,"POINT_Y":2.35179961108,"NOFBI_Stru":""}},
{"type":"Feature","geometry":{"type":"Point","coordinates":[35.976504847266845,4.574690441028365]},"properties":{"TOWN":"Namurupoll","wanted":0,"POINT_X":35.9765048473,"POINT_Y":4.57469044103,"NOFBI_Stru":""}},
{"type":"Feature","geometry":{"type":"Point","coordinates":[35.96126688035139,4.52750025264634]},"properties":{"TOWN":"Todenyang","wanted":0,"POINT_X":35.9612668804,"POINT_Y":4.52750025265,"NOFBI_Stru":""}},
{"type":"Feature","geometry":{"type":"Point","coordinates":[36.28108951729766,-1.8915665417799181]},"properties":{"TOWN":"Magadi","wanted":0,"POINT_X":36.2810895173,"POINT_Y":-1.89156654178,"NOFBI_Stru":""}},
{"type":"Feature","geometry":{"type":"Point","coordinates":[36.216306938204525,0.0013146248309911866]},"properties":{"TOWN":"Subukia","wanted":0,"POINT_X":36.2163069382,"POINT_Y":0.00131462483099,"NOFBI_Stru":""}},
{"type":"Feature","geometry":{"type":"Point","coordinates":[36.1424697814317,0.01694289065878403]},"properties":{"TOWN":"Solai","wanted":0,"POINT_X":36.1424697814,"POINT_Y":0.0169428906588,"NOFBI_Stru":""}},
{"type":"Feature","geometry":{"type":"Point","coordinates":[36.162469584754,-0.08124976712101553]},"properties":{"TOWN":"Kabazi","wanted":0,"POINT_X":36.1624695848,"POINT_Y":-0.081249767121,"NOFBI_Stru":""}},
{"type":"Feature","geometry":{"type":"Point","coordinates":[36.21423733811087,-0.254992126798723]},"properties":{"TOWN":"Dundori","wanted":0,"POINT_X":36.2142373381,"POINT_Y":-0.254992126799,"NOFBI_Stru":""}},
{"type":"Feature","geometry":{"type":"Point","coordinates":[36.153989596531545,-0.49048936989546743]},"properties":{"TOWN":"Elementeta","wanted":0,"POINT_X":36.1539895965,"POINT_Y":-0.490489369895,"NOFBI_Stru":""}},
{"type":"Feature","geometry":{"type":"Point","coordinates":[36.25401159649804,-0.8214488498013989]},"properties":{"TOWN":"Kongoni","wanted":0,"POINT_X":36.2540115965,"POINT_Y":-0.821448849801,"NOFBI_Stru":""}},
{"type":"Feature","geometry":{"type":"Point","coordinates":[36.15095666525525,-1.0408446909017235]},"properties":{"TOWN":"Nairagie Enkare","wanted":0,"POINT_X":36.1509566653,"POINT_Y":-1.0408446909,"NOFBI_Stru":""}},
{"type":"Feature","geometry":{"type":"Point","coordinates":[36.354135253215425,0.040733657587844925]},"properties":{"TOWN":"Nyahururu","wanted":0,"POINT_X":36.3541352532,"POINT_Y":0.0407336575878,"NOFBI_Stru":"County Headquaters"}},
{"type":"Feature","geometry":{"type":"Point","coordinates":[36.356554752922634,-0.07316188700944184]},"properties":{"TOWN":"Ol Joro Orok","wanted":0,"POINT_X":36.3565547529,"POINT_Y":-0.0731618870094,"NOFBI_Stru":""}},
{"type":"Feature","geometry":{"type":"Point","coordinates":[36.37025930285983,-0.2698581714561181]},"properties":{"TOWN":"Ol Karau","wanted":0,"POINT_X":36.3702593029,"POINT_Y":-0.269858171456,"NOFBI_Stru":""}},
{"type":"Feature","geometry":{"type":"Point","coordinates":[36.31069915506726,-0.5017781049378622]},"properties":{"TOWN":"Gilgil","wanted":0,"POINT_X":36.3106991551,"POINT_Y":-0.501778104938,"NOFBI_Stru":"TLK (OFC Terminals)"}},
{"type":"Feature","geometry":{"type":"Point","coordinates":[36.43018004943329,-0.7193004614927188]},"properties":{"TOWN":"Naivasha","wanted":0,"POINT_X":36.4301800494,"POINT_Y":-0.719300461493,"NOFBI_Stru":"TLK (OFC Terminals)"}},
{"type":"Feature","geometry":{"type":"Point","coordinates":[36.26817731058892,0.7961855809684868]},"properties":{"TOWN":"Tangulbei","wanted":0,"POINT_X":36.2681773106,"POINT_Y":0.796185580968,"NOFBI_Stru":""}},
{"type":"Feature","geometry":{"type":"Point","coordinates":[36.30969803283733,0.4113076591065505]},"properties":{"TOWN":"Ndindika","wanted":0,"POINT_X":36.3096980328,"POINT_Y":0.411307659107,"NOFBI_Stru":""}},
{"type":"Feature","geometry":{"type":"Point","coordinates":[36.36225801690859,0.39618341528643614]},"properties":{"TOWN":"Sipili","wanted":0,"POINT_X":36.3622580169,"POINT_Y":0.396183415286,"NOFBI_Stru":""}},
{"type":"Feature","geometry":{"type":"Point","coordinates":[36.30869948084022,0.2782730013014814]},"properties":{"TOWN":"Ngarua","wanted":0,"POINT_X":36.3086994808,"POINT_Y":0.278273001301,"NOFBI_Stru":""}},
{"type":"Feature","geometry":{"type":"Point","coordinates":[36.521493457423155,-0.057552583578582776]},"properties":{"TOWN":"Ndaragwa","wanted":0,"POINT_X":36.5214934574,"POINT_Y":-0.0575525835786,"NOFBI_Stru":""}},
{"type":"Feature","geometry":{"type":"Point","coordinates":[36.48697431728221,-0.32752392319563395]},"properties":{"TOWN":"Magomano","wanted":0,"POINT_X":36.4869743173,"POINT_Y":-0.327523923196,"NOFBI_Stru":""}},
{"type":"Feature","geometry":{"type":"Point","coordinates":[36.57308655256702,-0.6047567859570551]},"properties":{"TOWN":"North Kinangop","wanted":0,"POINT_X":36.5730865526,"POINT_Y":-0.604756785957,"NOFBI_Stru":""}},
{"type":"Feature","geometry":{"type":"Point","coordinates":[36.5745305392374,-0.9240152580084481]},"properties":{"TOWN":"Kijabe","wanted":0,"POINT_X":36.5745305392,"POINT_Y":-0.924015258008,"NOFBI_Stru":""}},
{"type":"Feature","geometry":{"type":"Point","coordinates":[36.47930235226711,-1.1290171113504746]},"properties":{"TOWN":"Ewaso Kedong","wanted":0,"POINT_X":36.4793023523,"POINT_Y":-1.12901711135,"NOFBI_Stru":""}},
{"type":"Feature","geometry":{"type":"Point","coordinates":[36.6296871135167,-0.8400122523253605]},"properties":{"TOWN":"Kamae","wanted":0,"POINT_X":36.6296871135,"POINT_Y":-0.840012252325,"NOFBI_Stru":""}},
{"type":"Feature","geometry":{"type":"Point","coordinates":[36.65209434232047,-0.7197508425015307]},"properties":{"TOWN":"Njabini","wanted":0,"POINT_X":36.6520943423,"POINT_Y":-0.719750842502,"NOFBI_Stru":""}},
{"type":"Feature","geometry":{"type":"Point","coordinates":[36.72127202330432,-0.22404838790858744]},"properties":{"TOWN":"Gatarakwa","wanted":0,"POINT_X":36.7212720233,"POINT_Y":-0.224048387909,"NOFBI_Stru":""}},
{"type":"Feature","geometry":{"type":"Point","coordinates":[36.73104935113298,-1.0996710349784253]},"properties":{"TOWN":"Kamondo","wanted":0,"POINT_X":36.7310493511,"POINT_Y":-1.09967103498,"NOFBI_Stru":""}},
{"type":"Feature","geometry":{"type":"Point","coordinates":[36.637284313839785,-1.0324152310719916]},"properties":{"TOWN":"Uplands","wanted":0,"POINT_X":36.6372843138,"POINT_Y":-1.03241523107,"NOFBI_Stru":""}},
{"type":"Feature","geometry":{"type":"Point","coordinates":[36.66101075132865,-1.1187124184575168]},"properties":{"TOWN":"Tigoni","wanted":0,"POINT_X":36.6610107513,"POINT_Y":-1.11871241846,"NOFBI_Stru":""}},
{"type":"Feature","geometry":{"type":"Point","coordinates":[36.629294133141755,-1.149092806233872]},"properties":{"TOWN":"Rironi","wanted":0,"POINT_X":36.6292941331,"POINT_Y":-1.14909280623,"NOFBI_Stru":""}},
{"type":"Feature","geometry":{"type":"Point","coordinates":[36.62519348083971,-1.1025638604825037]},"properties":{"TOWN":"Limuru","wanted":0,"POINT_X":36.6251934808,"POINT_Y":-1.10256386048,"NOFBI_Stru":""}},
{"type":"Feature","geometry":{"type":"Point","coordinates":[36.6538772094957,-1.2332990636761898]},"properties":{"TOWN":"Kikuyu","wanted":0,"POINT_X":36.6538772095,"POINT_Y":-1.23329906368,"NOFBI_Stru":""}},
{"type":"Feature","geometry":{"type":"Point","coordinates":[36.60663469894358,-1.2704451715921097]},"properties":{"TOWN":"Lusigeti","wanted":0,"POINT_X":36.6066346989,"POINT_Y":-1.27044517159,"NOFBI_Stru":""}},
{"type":"Feature","geometry":{"type":"Point","coordinates":[36.647261972111316,-1.3519978215285045]},"properties":{"TOWN":"Ngong","wanted":0,"POINT_X":36.6472619721,"POINT_Y":-1.35199782153,"NOFBI_Stru":""}},
{"type":"Feature","geometry":{"type":"Point","coordinates":[36.705904845342936,-1.2038598367979698]},"properties":{"TOWN":"Wangige","wanted":0,"POINT_X":36.7059048453,"POINT_Y":-1.2038598368,"NOFBI_Stru":""}},
{"type":"Feature","geometry":{"type":"Point","coordinates":[36.68058328682635,-1.4191118118811281]},"properties":{"TOWN":"Kiserian","wanted":0,"POINT_X":36.6805832868,"POINT_Y":-1.41911181188,"NOFBI_Stru":""}},
{"type":"Feature","geometry":{"type":"Point","coordinates":[36.58257769913785,0.7103979291390305]},"properties":{"TOWN":"Sukuta Magie","wanted":0,"POINT_X":36.5825776991,"POINT_Y":0.710397929139,"NOFBI_Stru":""}},
{"type":"Feature","geometry":{"type":"Point","coordinates":[36.526584492048016,0.25876886921766046]},"properties":{"TOWN":"Rumuruti","wanted":0,"POINT_X":36.526584492,"POINT_Y":0.258768869218,"NOFBI_Stru":""}},
{"type":"Feature","geometry":{"type":"Point","coordinates":[36.611681574853996,1.2417591977730684]},"properties":{"TOWN":"Poro","wanted":2,"POINT_X":36.6116815749,"POINT_Y":1.24175919777,"NOFBI_Stru":""}},
{"type":"Feature","geometry":{"type":"Point","coordinates":[36.69866235907838,1.0970306218642485]},"properties":{"TOWN":"Maralal","wanted":2,"POINT_X":36.6986623591,"POINT_Y":1.09703062186,"NOFBI_Stru":"County Headquaters"}},
{"type":"Feature","geometry":{"type":"Point","coordinates":[36.67467155085255,0.829731072090394]},"properties":{"TOWN":"Sukuta Lol Marmar","wanted":0,"POINT_X":36.6746715509,"POINT_Y":0.82973107209,"NOFBI_Stru":""}},
{"type":"Feature","geometry":{"type":"Point","coordinates":[36.78931670258774,-1.8315455519295087]},"properties":{"TOWN":"Kajiado","wanted":0,"POINT_X":36.7893167026,"POINT_Y":-1.83154555193,"NOFBI_Stru":"County Headquaters"}},
{"type":"Feature","geometry":{"type":"Point","coordinates":[36.79076973256733,-2.5286591795003392]},"properties":{"TOWN":"Namanga","wanted":0,"POINT_X":36.7907697326,"POINT_Y":-2.5286591795,"NOFBI_Stru":"TLK (OFC Terminals)"}},
{"type":"Feature","geometry":{"type":"Point","coordinates":[37.15678503945863,-1.8813422165225298]},"properties":{"TOWN":"Kiu","wanted":0,"POINT_X":37.1567850395,"POINT_Y":-1.88134221652,"NOFBI_Stru":""}},
{"type":"Feature","geometry":{"type":"Point","coordinates":[37.1300306161627,-1.723441804838728]},"properties":{"TOWN":"Konza","wanted":2,"POINT_X":37.1300306162,"POINT_Y":-1.72344180484,"NOFBI_Stru":""}},
{"type":"Feature","geometry":{"type":"Point","coordinates":[37.169990992786786,-2.1634002873641904]},"properties":{"TOWN":"Selengei","wanted":0,"POINT_X":37.1699909928,"POINT_Y":-2.16340028736,"NOFBI_Stru":""}},
{"type":"Feature","geometry":{"type":"Point","coordinates":[37.24988331268494,-1.83939234483239]},"properties":{"TOWN":"Salama","wanted":2,"POINT_X":37.2498833127,"POINT_Y":-1.83939234483,"NOFBI_Stru":""}},
{"type":"Feature","geometry":{"type":"Point","coordinates":[36.80727562172683,-0.9670372634054714]},"properties":{"TOWN":"Kiganjo","wanted":0,"POINT_X":36.8072756217,"POINT_Y":-0.967037263405,"NOFBI_Stru":""}},
{"type":"Feature","geometry":{"type":"Point","coordinates":[36.80310066056308,-0.7527745518965933]},"properties":{"TOWN":"Kinyona","wanted":0,"POINT_X":36.8031006606,"POINT_Y":-0.752774551897,"NOFBI_Stru":""}},
{"type":"Feature","geometry":{"type":"Point","coordinates":[36.86149987829782,-0.5204585841997936]},"properties":{"TOWN":"Konyu","wanted":0,"POINT_X":36.8614998783,"POINT_Y":-0.5204585842,"NOFBI_Stru":""}},
{"type":"Feature","geometry":{"type":"Point","coordinates":[36.87519322683202,-0.39232464337064515]},"properties":{"TOWN":"Kanjora","wanted":0,"POINT_X":36.8751932268,"POINT_Y":-0.392324643371,"NOFBI_Stru":""}},
{"type":"Feature","geometry":{"type":"Point","coordinates":[36.78644149506756,-0.30338475868128023]},"properties":{"TOWN":"Endarasha","wanted":0,"POINT_X":36.7864414951,"POINT_Y":-0.303384758681,"NOFBI_Stru":""}},
{"type":"Feature","geometry":{"type":"Point","coordinates":[36.86004003531272,-0.139347466404815]},"properties":{"TOWN":"Lomuria","wanted":0,"POINT_X":36.8600400353,"POINT_Y":-0.139347466405,"NOFBI_Stru":""}},
{"type":"Feature","geometry":{"type":"Point","coordinates":[36.77492759010329,-0.051145565282239326]},"properties":{"TOWN":"Ngobit","wanted":0,"POINT_X":36.7749275901,"POINT_Y":-0.0511455652822,"NOFBI_Stru":""}},
{"type":"Feature","geometry":{"type":"Point","coordinates":[36.828366289743414,-1.156885312593238]},"properties":{"TOWN":"Kiambu","wanted":0,"POINT_X":36.8283662897,"POINT_Y":-1.15688531259,"NOFBI_Stru":"County Headquaters"}},
{"type":"Feature","geometry":{"type":"Point","coordinates":[36.798629050425944,-1.1373626693693712]},"properties":{"TOWN":"Ndumberi","wanted":0,"POINT_X":36.7986290504,"POINT_Y":-1.13736266937,"NOFBI_Stru":""}},
{"type":"Feature","geometry":{"type":"Point","coordinates":[36.8397780495705,-1.0887726915946108]},"properties":{"TOWN":"Kimathi","wanted":0,"POINT_X":36.8397780496,"POINT_Y":-1.08877269159,"NOFBI_Stru":""}},
{"type":"Feature","geometry":{"type":"Point","coordinates":[36.779628178309025,-1.0470264689945776]},"properties":{"TOWN":"Githunguri","wanted":0,"POINT_X":36.7796281783,"POINT_Y":-1.04702646899,"NOFBI_Stru":""}},
{"type":"Feature","geometry":{"type":"Point","coordinates":[36.79047651793937,-1.0901707268068133]},"properties":{"TOWN":"Ikinu","wanted":0,"POINT_X":36.7904765179,"POINT_Y":-1.09017072681,"NOFBI_Stru":""}},
{"type":"Feature","geometry":{"type":"Point","coordinates":[36.88020498010225,-1.289677786362438]},"properties":{"TOWN":"Nairobi","wanted":0,"POINT_X":36.8802049801,"POINT_Y":-1.28967778636,"NOFBI_Stru":"County Headquaters"}},
{"type":"Feature","geometry":{"type":"Point","coordinates":[36.740302262897664,-1.157293323439354]},"properties":{"TOWN":"Karuri","wanted":0,"POINT_X":36.7403022629,"POINT_Y":-1.15729332344,"NOFBI_Stru":""}},
{"type":"Feature","geometry":{"type":"Point","coordinates":[36.73357813851804,-1.1856222742323255]},"properties":{"TOWN":"Ndenderu","wanted":0,"POINT_X":36.7335781385,"POINT_Y":-1.18562227423,"NOFBI_Stru":""}},
{"type":"Feature","geometry":{"type":"Point","coordinates":[36.752305444903755,-1.383863198077592]},"properties":{"TOWN":"Ongata Rongai","wanted":0,"POINT_X":36.7523054449,"POINT_Y":-1.38386319808,"NOFBI_Stru":""}},
{"type":"Feature","geometry":{"type":"Point","coordinates":[36.9593928060152,-0.9260935187885118]},"properties":{"TOWN":"Gatanga","wanted":0,"POINT_X":36.959392806,"POINT_Y":-0.926093518789,"NOFBI_Stru":""}},
{"type":"Feature","geometry":{"type":"Point","coordinates":[36.98449890720863,-0.8789434928801404]},"properties":{"TOWN":"Kandara","wanted":0,"POINT_X":36.9844989072,"POINT_Y":-0.87894349288,"NOFBI_Stru":""}},
{"type":"Feature","geometry":{"type":"Point","coordinates":[36.96708541439671,-0.791501667549506]},"properties":{"TOWN":"Kigumo","wanted":0,"POINT_X":36.9670854144,"POINT_Y":-0.79150166755,"NOFBI_Stru":""}},
{"type":"Feature","geometry":{"type":"Point","coordinates":[36.9659621314766,-0.675786990810329]},"properties":{"TOWN":"Kangema","wanted":0,"POINT_X":36.9659621315,"POINT_Y":-0.67578699081,"NOFBI_Stru":""}},
{"type":"Feature","geometry":{"type":"Point","coordinates":[36.939749331641835,-0.5407272940485087]},"properties":{"TOWN":"Othaya","wanted":0,"POINT_X":36.9397493316,"POINT_Y":-0.540727294049,"NOFBI_Stru":""}},
{"type":"Feature","geometry":{"type":"Point","coordinates":[36.94626395897306,-0.4199615002609612]},"properties":{"TOWN":"Nyeri","wanted":2,"POINT_X":36.946263959,"POINT_Y":-0.419961500261,"NOFBI_Stru":"County Headquaters"}},
{"type":"Feature","geometry":{"type":"Point","coordinates":[36.999078520545034,-0.38765572839204576]},"properties":{"TOWN":"Kiganjo","wanted":2,"POINT_X":36.9990785205,"POINT_Y":-0.387655728392,"NOFBI_Stru":""}},
{"type":"Feature","geometry":{"type":"Point","coordinates":[36.895799437384646,-0.3221226232242599]},"properties":{"TOWN":"Mweiga","wanted":0,"POINT_X":36.8957994374,"POINT_Y":-0.322122623224,"NOFBI_Stru":""}},
{"type":"Feature","geometry":{"type":"Point","coordinates":[37.01467138401148,-0.1676685210214648]},"properties":{"TOWN":"Naro Moru","wanted":2,"POINT_X":37.014671384,"POINT_Y":-0.167668521021,"NOFBI_Stru":""}},
{"type":"Feature","geometry":{"type":"Point","coordinates":[37.008617869871934,-1.100064065449535]},"properties":{"TOWN":"Juja","wanted":0,"POINT_X":37.0086178699,"POINT_Y":-1.10006406545,"NOFBI_Stru":""}},
{"type":"Feature","geometry":{"type":"Point","coordinates":[36.96003778493244,-1.1392161339449867]},"properties":{"TOWN":"Ruiru","wanted":0,"POINT_X":36.9600377849,"POINT_Y":-1.13921613394,"NOFBI_Stru":""}},
{"type":"Feature","geometry":{"type":"Point","coordinates":[36.89781421718194,-1.0435413590766576]},"properties":{"TOWN":"Nembu","wanted":0,"POINT_X":36.8978142172,"POINT_Y":-1.04354135908,"NOFBI_Stru":""}},
{"type":"Feature","geometry":{"type":"Point","coordinates":[36.93725603560559,-1.2423949543584085]},"properties":{"TOWN":"Dandora","wanted":2,"POINT_X":36.9372560356,"POINT_Y":-1.24239495436,"NOFBI_Stru":""}},
{"type":"Feature","geometry":{"type":"Point","coordinates":[36.91088868124332,-1.215456415366054]},"properties":{"TOWN":"Kasarani","wanted":0,"POINT_X":36.9108886812,"POINT_Y":-1.21545641537,"NOFBI_Stru":""}},
{"type":"Feature","geometry":{"type":"Point","coordinates":[36.97372252742334,-1.439628060610245]},"properties":{"TOWN":"Athi River","wanted":2,"POINT_X":36.9737225274,"POINT_Y":-1.43962806061,"NOFBI_Stru":"TLK (OFC Terminals)"}},
{"type":"Feature","geometry":{"type":"Point","coordinates":[36.79148970648451,1.7863924753314877]},"properties":{"TOWN":"Baragoi","wanted":2,"POINT_X":36.7914897065,"POINT_Y":1.78639247533,"NOFBI_Stru":""}},
{"type":"Feature","geometry":{"type":"Point","coordinates":[36.979947516717935,1.794863221417959]},"properties":{"TOWN":"Lesirikan","wanted":2,"POINT_X":36.9799475167,"POINT_Y":1.79486322142,"NOFBI_Stru":""}},
{"type":"Feature","geometry":{"type":"Point","coordinates":[36.9931964113476,0.8682824292009957]},"properties":{"TOWN":"Lodungokwe","wanted":0,"POINT_X":36.9931964113,"POINT_Y":0.868282429201,"NOFBI_Stru":""}},
{"type":"Feature","geometry":{"type":"Point","coordinates":[37.12940040303706,-0.7906469333850288]},"properties":{"TOWN":"Maragua","wanted":0,"POINT_X":37.129400403,"POINT_Y":-0.790646933385,"NOFBI_Stru":""}},
{"type":"Feature","geometry":{"type":"Point","coordinates":[37.10945688813675,-0.9439598094141519]},"properties":{"TOWN":"Kabati","wanted":2,"POINT_X":37.1094568881,"POINT_Y":-0.943959809414,"NOFBI_Stru":""}},
{"type":"Feature","geometry":{"type":"Point","coordinates":[37.15952387757432,-0.7146151784683199]},"properties":{"TOWN":"Muranga","wanted":0,"POINT_X":37.1595238776,"POINT_Y":-0.714615178468,"NOFBI_Stru":"County Headquaters"}},
{"type":"Feature","geometry":{"type":"Point","coordinates":[37.11738007490121,-0.4718444565287427]},"properties":{"TOWN":"Karatina","wanted":0,"POINT_X":37.1173800749,"POINT_Y":-0.471844456529,"NOFBI_Stru":""}},
{"type":"Feature","geometry":{"type":"Point","coordinates":[37.13574952814716,-0.36832745876952755]},"properties":{"TOWN":"Mathira","wanted":0,"POINT_X":37.1357495281,"POINT_Y":-0.36832745877,"NOFBI_Stru":""}},
{"type":"Feature","geometry":{"type":"Point","coordinates":[37.16921596749662,-0.481700945523586]},"properties":{"TOWN":"Kangai","wanted":0,"POINT_X":37.1692159675,"POINT_Y":-0.481700945524,"NOFBI_Stru":""}},
{"type":"Feature","geometry":{"type":"Point","coordinates":[37.04183532197202,-0.5532146543209921]},"properties":{"TOWN":"Mukurweini","wanted":0,"POINT_X":37.041835322,"POINT_Y":-0.553214654321,"NOFBI_Stru":""}},
{"type":"Feature","geometry":{"type":"Point","coordinates":[37.0674893139352,0.01931921710704047]},"properties":{"TOWN":"Nanyuki","wanted":2,"POINT_X":37.0674893139,"POINT_Y":0.019319217107,"NOFBI_Stru":"County Headquaters"}},
{"type":"Feature","geometry":{"type":"Point","coordinates":[37.05987244525218,-1.033947901977202]},"properties":{"TOWN":"Thika","wanted":0,"POINT_X":37.0598724453,"POINT_Y":-1.03394790198,"NOFBI_Stru":"TLK (OFC Terminals)"}},
{"type":"Feature","geometry":{"type":"Point","coordinates":[37.186287711036854,-0.8894217031260249]},"properties":{"TOWN":"Makuyu","wanted":0,"POINT_X":37.186287711,"POINT_Y":-0.889421703126,"NOFBI_Stru":""}},
{"type":"Feature","geometry":{"type":"Point","coordinates":[37.25106238140157,-0.617991850029152]},"properties":{"TOWN":"Kagio","wanted":0,"POINT_X":37.2510623814,"POINT_Y":-0.617991850029,"NOFBI_Stru":""}},
{"type":"Feature","geometry":{"type":"Point","coordinates":[37.31672959671291,-0.5581347012302359]},"properties":{"TOWN":"Kutus","wanted":0,"POINT_X":37.3167295967,"POINT_Y":-0.55813470123,"NOFBI_Stru":""}},
{"type":"Feature","geometry":{"type":"Point","coordinates":[37.206578927139105,-0.6562997440960108]},"properties":{"TOWN":"Sagana","wanted":2,"POINT_X":37.2065789271,"POINT_Y":-0.656299744096,"NOFBI_Stru":"ZTE (OFC Joint)"}},
{"type":"Feature","geometry":{"type":"Point","coordinates":[37.24293305892472,-0.4706868405985616]},"properties":{"TOWN":"Kerugoya","wanted":0,"POINT_X":37.2429330589,"POINT_Y":-0.470686840599,"NOFBI_Stru":"County Headquaters"}},
{"type":"Feature","geometry":{"type":"Point","coordinates":[37.30574884977756,-0.39984236572630916]},"properties":{"TOWN":"Njiku","wanted":0,"POINT_X":37.3057488498,"POINT_Y":-0.399842365726,"NOFBI_Stru":""}},
{"type":"Feature","geometry":{"type":"Point","coordinates":[37.23395722947769,-0.5444842672878384]},"properties":{"TOWN":"Baricho","wanted":0,"POINT_X":37.2339572295,"POINT_Y":-0.544484267288,"NOFBI_Stru":""}},
{"type":"Feature","geometry":{"type":"Point","coordinates":[37.23104410982261,0.09172908909445308]},"properties":{"TOWN":"Timau","wanted":0,"POINT_X":37.2310441098,"POINT_Y":0.0917290890945,"NOFBI_Stru":""}},
{"type":"Feature","geometry":{"type":"Point","coordinates":[37.258834540064846,-1.506809310645686]},"properties":{"TOWN":"Machakos","wanted":2,"POINT_X":37.2588345401,"POINT_Y":-1.50680931065,"NOFBI_Stru":"County Headquaters"}},
{"type":"Feature","geometry":{"type":"Point","coordinates":[37.22764803596422,-1.4077714514092645]},"properties":{"TOWN":"Ngelani","wanted":0,"POINT_X":37.227648036,"POINT_Y":-1.40777145141,"NOFBI_Stru":""}},
{"type":"Feature","geometry":{"type":"Point","coordinates":[37.284323637543,-1.3814125355854716]},"properties":{"TOWN":"Ngoleni","wanted":0,"POINT_X":37.2843236375,"POINT_Y":-1.38141253559,"NOFBI_Stru":""}},
{"type":"Feature","geometry":{"type":"Point","coordinates":[37.31455164050328,-1.254027818023038]},"properties":{"TOWN":"Tala","wanted":0,"POINT_X":37.3145516405,"POINT_Y":-1.25402781802,"NOFBI_Stru":""}},
{"type":"Feature","geometry":{"type":"Point","coordinates":[37.259705107380775,-1.0983697217593298]},"properties":{"TOWN":"Ol Doinyo Sabuk","wanted":0,"POINT_X":37.2597051074,"POINT_Y":-1.09836972176,"NOFBI_Stru":""}},
{"type":"Feature","geometry":{"type":"Point","coordinates":[37.15222263518853,0.39354023867346494]},"properties":{"TOWN":"Dol Dol","wanted":0,"POINT_X":37.1522226352,"POINT_Y":0.393540238673,"NOFBI_Stru":""}},
{"type":"Feature","geometry":{"type":"Point","coordinates":[37.09305657715696,0.7921769354939855]},"properties":{"TOWN":"Barsalinga","wanted":2,"POINT_X":37.0930565772,"POINT_Y":0.792176935494,"NOFBI_Stru":""}},
{"type":"Feature","geometry":{"type":"Point","coordinates":[37.1092280946761,0.7096110724730968]},"properties":{"TOWN":"Longopito","wanted":0,"POINT_X":37.1092280947,"POINT_Y":0.709611072473,"NOFBI_Stru":""}},
{"type":"Feature","geometry":{"type":"Point","coordinates":[37.279182493256116,1.8706958724240919]},"properties":{"TOWN":"Illaut","wanted":2,"POINT_X":37.2791824933,"POINT_Y":1.87069587242,"NOFBI_Stru":""}},
{"type":"Feature","geometry":{"type":"Point","coordinates":[37.321371014659924,0.9857795452597446]},"properties":{"TOWN":"Wamba","wanted":0,"POINT_X":37.3213710147,"POINT_Y":0.98577954526,"NOFBI_Stru":""}},
{"type":"Feature","geometry":{"type":"Point","coordinates":[37.4745471872301,-2.074125133731715]},"properties":{"TOWN":"Emali","wanted":2,"POINT_X":37.4745471872,"POINT_Y":-2.07412513373,"NOFBI_Stru":""}},
{"type":"Feature","geometry":{"type":"Point","coordinates":[37.370473207823025,-2.0076044921141842]},"properties":{"TOWN":"Sultan Hamud","wanted":2,"POINT_X":37.3704732078,"POINT_Y":-2.00760449211,"NOFBI_Stru":"TLK (OFC Terminals)"}},
{"type":"Feature","geometry":{"type":"Point","coordinates":[37.34566551812655,-1.791379712227208]},"properties":{"TOWN":"Kilome","wanted":0,"POINT_X":37.3456655181,"POINT_Y":-1.79137971223,"NOFBI_Stru":""}},
{"type":"Feature","geometry":{"type":"Point","coordinates":[37.36184361423312,-1.7772003080612464]},"properties":{"TOWN":"Nunguni","wanted":2,"POINT_X":37.3618436142,"POINT_Y":-1.77720030806,"NOFBI_Stru":""}},
{"type":"Feature","geometry":{"type":"Point","coordinates":[37.38438353620203,-1.9335139842646039]},"properties":{"TOWN":"Kasikeu","wanted":0,"POINT_X":37.3843835362,"POINT_Y":-1.93351398426,"NOFBI_Stru":""}},
{"type":"Feature","geometry":{"type":"Point","coordinates":[37.34215050066349,-1.6877624381451504]},"properties":{"TOWN":"Kola","wanted":0,"POINT_X":37.3421505007,"POINT_Y":-1.68776243815,"NOFBI_Stru":""}},
{"type":"Feature","geometry":{"type":"Point","coordinates":[37.45224856152657,-1.732741457093741]},"properties":{"TOWN":"Mukuyuni","wanted":2,"POINT_X":37.4522485615,"POINT_Y":-1.73274145709,"NOFBI_Stru":""}},
{"type":"Feature","geometry":{"type":"Point","coordinates":[37.55051896318951,-1.749687823281838]},"properties":{"TOWN":"Kilala","wanted":0,"POINT_X":37.5505189632,"POINT_Y":-1.74968782328,"NOFBI_Stru":""}},
{"type":"Feature","geometry":{"type":"Point","coordinates":[37.61400580274253,-1.795788097769148]},"properties":{"TOWN":"Makueni","wanted":2,"POINT_X":37.6140058027,"POINT_Y":-1.79578809777,"NOFBI_Stru":""}},
{"type":"Feature","geometry":{"type":"Point","coordinates":[37.5278403122741,-1.9279261847536602]},"properties":{"TOWN":"Matiliku","wanted":0,"POINT_X":37.5278403123,"POINT_Y":-1.92792618475,"NOFBI_Stru":""}},
{"type":"Feature","geometry":{"type":"Point","coordinates":[37.509286395556714,-2.012346406793579]},"properties":{"TOWN":"Mwanyani","wanted":0,"POINT_X":37.5092863956,"POINT_Y":-2.01234640679,"NOFBI_Stru":""}},
{"type":"Feature","geometry":{"type":"Point","coordinates":[37.585766106326986,-2.142667284938588]},"properties":{"TOWN":"Salama","wanted":2,"POINT_X":37.5857661063,"POINT_Y":-2.14266728494,"NOFBI_Stru":""}},
{"type":"Feature","geometry":{"type":"Point","coordinates":[37.50219848490073,-2.902626864665208]},"properties":{"TOWN":"Oloitokitok","wanted":2,"POINT_X":37.5021984849,"POINT_Y":-2.90262686467,"NOFBI_Stru":""}},
{"type":"Feature","geometry":{"type":"Point","coordinates":[37.70044840940697,-3.031984380102728]},"properties":{"TOWN":"Rombo","wanted":2,"POINT_X":37.7004484094,"POINT_Y":-3.0319843801,"NOFBI_Stru":""}},
{"type":"Feature","geometry":{"type":"Point","coordinates":[37.7240928627347,-3.1988575368647685]},"properties":{"TOWN":"Chumbini","wanted":2,"POINT_X":37.7240928627,"POINT_Y":-3.19885753686,"NOFBI_Stru":""}},
{"type":"Feature","geometry":{"type":"Point","coordinates":[37.69523845648062,-2.1883724276384715]},"properties":{"TOWN":"Kiboko","wanted":2,"POINT_X":37.6952384565,"POINT_Y":-2.18837242764,"NOFBI_Stru":""}},
{"type":"Feature","geometry":{"type":"Point","coordinates":[37.67239120816475,-3.376851487780749]},"properties":{"TOWN":"Taveta","wanted":2,"POINT_X":37.6723912082,"POINT_Y":-3.37685148778,"NOFBI_Stru":"NOFBI II (OFC Terminals)"}},
{"type":"Feature","geometry":{"type":"Point","coordinates":[37.8259535857505,-2.263805970508125]},"properties":{"TOWN":"Makindu","wanted":2,"POINT_X":37.8259535858,"POINT_Y":-2.26380597051,"NOFBI_Stru":""}},
{"type":"Feature","geometry":{"type":"Point","coordinates":[37.790651591946066,-3.3606489757204336]},"properties":{"TOWN":"Ziwani","wanted":2,"POINT_X":37.7906515919,"POINT_Y":-3.36064897572,"NOFBI_Stru":""}},
{"type":"Feature","geometry":{"type":"Point","coordinates":[37.446227594607656,-0.5239157721329893]},"properties":{"TOWN":"Embu","wanted":2,"POINT_X":37.4462275946,"POINT_Y":-0.523915772133,"NOFBI_Stru":"County Headquaters"}},
{"type":"Feature","geometry":{"type":"Point","coordinates":[37.344514815662315,-0.4897270640434139]},"properties":{"TOWN":"Kianyaga","wanted":0,"POINT_X":37.3445148157,"POINT_Y":-0.489727064043,"NOFBI_Stru":""}},
{"type":"Feature","geometry":{"type":"Point","coordinates":[37.4060355825629,0.1173597696407375]},"properties":{"TOWN":"Kisima","wanted":0,"POINT_X":37.4060355826,"POINT_Y":0.117359769641,"NOFBI_Stru":""}},
{"type":"Feature","geometry":{"type":"Point","coordinates":[37.3596490010817,-0.6522083585602396]},"properties":{"TOWN":"Murubara","wanted":0,"POINT_X":37.3596490011,"POINT_Y":-0.65220835856,"NOFBI_Stru":""}},
{"type":"Feature","geometry":{"type":"Point","coordinates":[37.44469625492835,-1.64986541072108]},"properties":{"TOWN":"Kikima","wanted":0,"POINT_X":37.4446962549,"POINT_Y":-1.64986541072,"NOFBI_Stru":""}},
{"type":"Feature","geometry":{"type":"Point","coordinates":[37.43224548539561,-1.4492877405424458]},"properties":{"TOWN":"Masii","wanted":0,"POINT_X":37.4322454854,"POINT_Y":-1.44928774054,"NOFBI_Stru":""}},
{"type":"Feature","geometry":{"type":"Point","coordinates":[37.4539621316729,-1.5355155024738558]},"properties":{"TOWN":"Tawa","wanted":0,"POINT_X":37.4539621317,"POINT_Y":-1.53551550247,"NOFBI_Stru":""}},
{"type":"Feature","geometry":{"type":"Point","coordinates":[37.390401126254545,-1.4540610091480946]},"properties":{"TOWN":"Jiani","wanted":0,"POINT_X":37.3904011263,"POINT_Y":-1.45406100915,"NOFBI_Stru":""}},
{"type":"Feature","geometry":{"type":"Point","coordinates":[37.33079211213552,-1.2877069161550587]},"properties":{"TOWN":"Kangundo","wanted":0,"POINT_X":37.3307921121,"POINT_Y":-1.28770691616,"NOFBI_Stru":"TLK (OFC Terminals)"}},
{"type":"Feature","geometry":{"type":"Point","coordinates":[37.44480422003014,-1.2289437214983263]},"properties":{"TOWN":"Kabaa","wanted":0,"POINT_X":37.44480422,"POINT_Y":-1.2289437215,"NOFBI_Stru":""}},
{"type":"Feature","geometry":{"type":"Point","coordinates":[37.444247518010634,-1.3307011879346058]},"properties":{"TOWN":"Mwala","wanted":0,"POINT_X":37.444247518,"POINT_Y":-1.33070118793,"NOFBI_Stru":""}},
{"type":"Feature","geometry":{"type":"Point","coordinates":[37.38757242038033,-1.3516621761206884]},"properties":{"TOWN":"Kivani","wanted":0,"POINT_X":37.3875724204,"POINT_Y":-1.35166217612,"NOFBI_Stru":""}},
{"type":"Feature","geometry":{"type":"Point","coordinates":[37.437460275096434,-1.1659318548514683]},"properties":{"TOWN":"Kithimani","wanted":2,"POINT_X":37.4374602751,"POINT_Y":-1.16593185485,"NOFBI_Stru":""}},
{"type":"Feature","geometry":{"type":"Point","coordinates":[37.602717646999366,-0.9585909549460986]},"properties":{"TOWN":"Masinga","wanted":2,"POINT_X":37.602717647,"POINT_Y":-0.958590954946,"NOFBI_Stru":""}},
{"type":"Feature","geometry":{"type":"Point","coordinates":[37.53483907949577,-0.6214722595012323]},"properties":{"TOWN":"Gachoka","wanted":2,"POINT_X":37.5348390795,"POINT_Y":-0.621472259501,"NOFBI_Stru":""}},
{"type":"Feature","geometry":{"type":"Point","coordinates":[37.55886601938629,-0.4019900054325764]},"properties":{"TOWN":"Runyenjes","wanted":2,"POINT_X":37.5588660194,"POINT_Y":-0.401990005433,"NOFBI_Stru":""}},
{"type":"Feature","geometry":{"type":"Point","coordinates":[37.6165683008723,-0.22342748230064613]},"properties":{"TOWN":"Chogoria","wanted":2,"POINT_X":37.6165683009,"POINT_Y":-0.223427482301,"NOFBI_Stru":""}},
{"type":"Feature","geometry":{"type":"Point","coordinates":[37.55748237723552,-1.3931093818105449]},"properties":{"TOWN":"Wamunyu","wanted":2,"POINT_X":37.5574823772,"POINT_Y":-1.39310938181,"NOFBI_Stru":""}},
{"type":"Feature","geometry":{"type":"Point","coordinates":[37.571342714179096,-1.5046824449551697]},"properties":{"TOWN":"Miu","wanted":0,"POINT_X":37.5713427142,"POINT_Y":-1.50468244496,"NOFBI_Stru":""}},
{"type":"Feature","geometry":{"type":"Point","coordinates":[37.59889239253954,1.1385722517698516]},"properties":{"TOWN":"Serolevi","wanted":2,"POINT_X":37.5988923925,"POINT_Y":1.13857225177,"NOFBI_Stru":""}},
{"type":"Feature","geometry":{"type":"Point","coordinates":[37.571235849715265,0.3573943128023661]},"properties":{"TOWN":"Isiolo","wanted":2,"POINT_X":37.5712358497,"POINT_Y":0.357394312802,"NOFBI_Stru":"County Headquaters"}},
{"type":"Feature","geometry":{"type":"Point","coordinates":[37.59889239253954,1.1385722517698516]},"properties":{"TOWN":"Serolevi","wanted":2,"POINT_X":37.5988923925,"POINT_Y":1.13857225177,"NOFBI_Stru":""}},
{"type":"Feature","geometry":{"type":"Point","coordinates":[37.63247739785311,-0.5695703515305212]},"properties":{"TOWN":"Siakago","wanted":2,"POINT_X":37.6324773979,"POINT_Y":-0.569570351531,"NOFBI_Stru":""}},
{"type":"Feature","geometry":{"type":"Point","coordinates":[37.63234044251849,-0.3202084720397058]},"properties":{"TOWN":"Chuka","wanted":2,"POINT_X":37.6323404425,"POINT_Y":-0.32020847204,"NOFBI_Stru":"County Headquaters"}},
{"type":"Feature","geometry":{"type":"Point","coordinates":[37.65844837664523,-0.1795207324472362]},"properties":{"TOWN":"Igoji","wanted":2,"POINT_X":37.6584483766,"POINT_Y":-0.179520732447,"NOFBI_Stru":""}},
{"type":"Feature","geometry":{"type":"Point","coordinates":[37.6536362169149,-0.056939002275376925]},"properties":{"TOWN":"Nkubu","wanted":2,"POINT_X":37.6536362169,"POINT_Y":-0.0569390022754,"NOFBI_Stru":""}},
{"type":"Feature","geometry":{"type":"Point","coordinates":[37.64447058255905,0.05431173507990535]},"properties":{"TOWN":"Meru","wanted":2,"POINT_X":37.6444705826,"POINT_Y":0.0543117350799,"NOFBI_Stru":"County Headquaters"}},
{"type":"Feature","geometry":{"type":"Point","coordinates":[37.64490730258947,0.1589121217098211]},"properties":{"TOWN":"Ruira","wanted":0,"POINT_X":37.6449073026,"POINT_Y":0.15891212171,"NOFBI_Stru":""}},
{"type":"Feature","geometry":{"type":"Point","coordinates":[37.74357015821797,0.17559356924136194]},"properties":{"TOWN":"Kianjai","wanted":0,"POINT_X":37.7435701582,"POINT_Y":0.175593569241,"NOFBI_Stru":""}},
{"type":"Feature","geometry":{"type":"Point","coordinates":[37.75932448523893,0.04361985115425311]},"properties":{"TOWN":"Giaki","wanted":0,"POINT_X":37.7593244852,"POINT_Y":0.0436198511543,"NOFBI_Stru":""}},
{"type":"Feature","geometry":{"type":"Point","coordinates":[37.670463273132285,-1.0561780017358426]},"properties":{"TOWN":"Kangonde","wanted":0,"POINT_X":37.6704632731,"POINT_Y":-1.05617800174,"NOFBI_Stru":"ZTE (OFC Joint)"}},
{"type":"Feature","geometry":{"type":"Point","coordinates":[37.68165497880973,-1.3887739955243739]},"properties":{"TOWN":"Katangi","wanted":0,"POINT_X":37.6816549788,"POINT_Y":-1.38877399552,"NOFBI_Stru":""}},
{"type":"Feature","geometry":{"type":"Point","coordinates":[37.790974167569836,-0.6828471831351818]},"properties":{"TOWN":"Kiambere","wanted":2,"POINT_X":37.7909741676,"POINT_Y":-0.682847183135,"NOFBI_Stru":""}},
{"type":"Feature","geometry":{"type":"Point","coordinates":[37.78225840931173,-0.4404185632524633]},"properties":{"TOWN":"Ishiara","wanted":0,"POINT_X":37.7822584093,"POINT_Y":-0.440418563252,"NOFBI_Stru":""}},
{"type":"Feature","geometry":{"type":"Point","coordinates":[37.7756992840479,-0.09414807765027351]},"properties":{"TOWN":"Mutungau","wanted":0,"POINT_X":37.775699284,"POINT_Y":-0.0941480776503,"NOFBI_Stru":""}},
{"type":"Feature","geometry":{"type":"Point","coordinates":[37.82358203111163,0.13133536510782637]},"properties":{"TOWN":"Mutuati","wanted":0,"POINT_X":37.8235820311,"POINT_Y":0.131335365108,"NOFBI_Stru":""}},
{"type":"Feature","geometry":{"type":"Point","coordinates":[37.82896555439381,-1.4541358232303347]},"properties":{"TOWN":"Yatta","wanted":0,"POINT_X":37.8289655544,"POINT_Y":-1.45413582323,"NOFBI_Stru":""}},
{"type":"Feature","geometry":{"type":"Point","coordinates":[37.658707248437395,0.6405386148933306]},"properties":{"TOWN":"Archer's Post","wanted":2,"POINT_X":37.6587072484,"POINT_Y":0.640538614893,"NOFBI_Stru":""}},
{"type":"Feature","geometry":{"type":"Point","coordinates":[37.799269338802624,1.6071447965361103]},"properties":{"TOWN":"Laisamis","wanted":2,"POINT_X":37.7992693388,"POINT_Y":1.60714479654,"NOFBI_Stru":"Sagem (OFC Terminals)"}},
{"type":"Feature","geometry":{"type":"Point","coordinates":[37.87282532542191,0.2899654579517461]},"properties":{"TOWN":"Kangeta","wanted":0,"POINT_X":37.8728253254,"POINT_Y":0.289965457952,"NOFBI_Stru":""}},
{"type":"Feature","geometry":{"type":"Point","coordinates":[37.799269338802624,1.6071447965361103]},"properties":{"TOWN":"Laisamis","wanted":2,"POINT_X":37.7992693388,"POINT_Y":1.60714479654,"NOFBI_Stru":"Sagem (OFC Terminals)"}},
{"type":"Feature","geometry":{"type":"Point","coordinates":[38.05757678200893,-2.5011062961977575]},"properties":{"TOWN":"Ngwata","wanted":2,"POINT_X":38.057576782,"POINT_Y":-2.5011062962,"NOFBI_Stru":""}},
{"type":"Feature","geometry":{"type":"Point","coordinates":[37.960673926280265,-2.390056847216644]},"properties":{"TOWN":"Kibwezi","wanted":2,"POINT_X":37.9606739263,"POINT_Y":-2.39005684722,"NOFBI_Stru":""}},
{"type":"Feature","geometry":{"type":"Point","coordinates":[37.93701938128629,-3.393150105540172]},"properties":{"TOWN":"Murka","wanted":2,"POINT_X":37.9370193813,"POINT_Y":-3.39315010554,"NOFBI_Stru":""}},
{"type":"Feature","geometry":{"type":"Point","coordinates":[38.168031530663576,-2.6711732870462255]},"properties":{"TOWN":"Mtito Andei","wanted":2,"POINT_X":38.1680315307,"POINT_Y":-2.67117328705,"NOFBI_Stru":"TLK (OFC Terminals)"}},
{"type":"Feature","geometry":{"type":"Point","coordinates":[38.11658082851249,-2.5639997869404194]},"properties":{"TOWN":"Darajani","wanted":2,"POINT_X":38.1165808285,"POINT_Y":-2.56399978694,"NOFBI_Stru":""}},
{"type":"Feature","geometry":{"type":"Point","coordinates":[38.1717009743563,-2.04525931413749]},"properties":{"TOWN":"Ikutha","wanted":2,"POINT_X":38.1717009744,"POINT_Y":-2.04525931414,"NOFBI_Stru":""}},
{"type":"Feature","geometry":{"type":"Point","coordinates":[38.20414426111925,-1.827833034539141]},"properties":{"TOWN":"Mutomo","wanted":2,"POINT_X":38.2041442611,"POINT_Y":-1.82783303454,"NOFBI_Stru":""}},
{"type":"Feature","geometry":{"type":"Point","coordinates":[38.135555272442545,-3.38297633166865]},"properties":{"TOWN":"Maktau","wanted":2,"POINT_X":38.1355552724,"POINT_Y":-3.38297633167,"NOFBI_Stru":""}},
{"type":"Feature","geometry":{"type":"Point","coordinates":[38.36553925964918,-3.3710654119469248]},"properties":{"TOWN":"Wundanyi","wanted":2,"POINT_X":38.3655392596,"POINT_Y":-3.37106541195,"NOFBI_Stru":"County Headquaters"}},
{"type":"Feature","geometry":{"type":"Point","coordinates":[38.34974359882314,-1.9554601392518751]},"properties":{"TOWN":"Kanziku","wanted":0,"POINT_X":38.3497435988,"POINT_Y":-1.95546013925,"NOFBI_Stru":""}},
{"type":"Feature","geometry":{"type":"Point","coordinates":[38.25978310836017,-1.915582271669535]},"properties":{"TOWN":"Muthue","wanted":0,"POINT_X":38.2597831084,"POINT_Y":-1.91558227167,"NOFBI_Stru":""}},
{"type":"Feature","geometry":{"type":"Point","coordinates":[38.31511885150199,-3.4662967957798556]},"properties":{"TOWN":"Bura","wanted":2,"POINT_X":38.3151188515,"POINT_Y":-3.46629679578,"NOFBI_Stru":""}},
{"type":"Feature","geometry":{"type":"Point","coordinates":[38.38383542318809,-3.475270283362493]},"properties":{"TOWN":"Mwatate","wanted":2,"POINT_X":38.3838354232,"POINT_Y":-3.47527028336,"NOFBI_Stru":""}},
{"type":"Feature","geometry":{"type":"Point","coordinates":[38.416103368542196,-3.3947707907435305]},"properties":{"TOWN":"Mwakinyungu","wanted":2,"POINT_X":38.4161033685,"POINT_Y":-3.39477079074,"NOFBI_Stru":""}},
{"type":"Feature","geometry":{"type":"Point","coordinates":[38.491576907884316,-3.0667041494235603]},"properties":{"TOWN":"Manyani","wanted":2,"POINT_X":38.4915769079,"POINT_Y":-3.06670414942,"NOFBI_Stru":""}},
{"type":"Feature","geometry":{"type":"Point","coordinates":[38.502498760558794,-3.2137520479313806]},"properties":{"TOWN":"Ndi","wanted":2,"POINT_X":38.5024987606,"POINT_Y":-3.21375204793,"NOFBI_Stru":""}},
{"type":"Feature","geometry":{"type":"Point","coordinates":[38.48722294682031,-3.2758451542259293]},"properties":{"TOWN":"Ndome","wanted":2,"POINT_X":38.4872229468,"POINT_Y":-3.27584515423,"NOFBI_Stru":""}},